{"type":"FeatureCollection","features":[{"type":"Feature","geometry":{"coordinates":[5.0696959490134805,47.328399000005376],"type":"Point"},"properties":{"objectid":1,"communes":"Dijon","nom":"Billardon","code_insee":"21231","lignes":"Corol; C36; C37; C38; L8","code_mkg":"08_028_d","terminus_1":null,"geo_point_2d":{"lon":5.0696959490134805,"lat":47.328399000005376}}},{"type":"Feature","geometry":{"coordinates":[5.1830222186836234,47.30908773361638],"type":"Point"},"properties":{"objectid":3,"communes":"Bressey-sur-Tille","nom":"BRESSEY","code_insee":"21105","lignes":"R36; BC64","code_mkg":"02_001_a","terminus_1":"Terminus","geo_point_2d":{"lon":5.1830222186836234,"lat":47.30908773361638}}},{"type":"Feature","geometry":{"coordinates":[5.009802818799739,47.320234999721265],"type":"Point"},"properties":{"objectid":4,"communes":"Dijon","nom":"Gorgets","code_insee":"21231","lignes":"B13","code_mkg":"08_115_a","terminus_1":null,"geo_point_2d":{"lon":5.009802818799739,"lat":47.320234999721265}}},{"type":"Feature","geometry":{"coordinates":[5.06660297825337,47.33427156709743],"type":"Point"},"properties":{"objectid":6,"communes":"Dijon","nom":"Lyc\u00e9e Eiffel","code_insee":"21231","lignes":"L3; C41","code_mkg":"08_142_a","terminus_1":null,"geo_point_2d":{"lon":5.06660297825337,"lat":47.33427156709743}}},{"type":"Feature","geometry":{"coordinates":[5.062800859038433,47.28725210255388],"type":"Point"},"properties":{"objectid":8,"communes":"Longvic","nom":"LONGVIC Centre","code_insee":"21355","lignes":"L6; R31; R32; R38; BC63; F44","code_mkg":"12_023_b","terminus_1":null,"geo_point_2d":{"lon":5.062800859038433,"lat":47.28725210255388}}},{"type":"Feature","geometry":{"coordinates":[5.008852606930771,47.333137389501495],"type":"Point"},"properties":{"objectid":11,"communes":"Talant","nom":"Cottages","code_insee":"21617","lignes":"B10","code_mkg":"22_009_a","terminus_1":null,"geo_point_2d":{"lon":5.008852606930771,"lat":47.333137389501495}}},{"type":"Feature","geometry":{"coordinates":[5.0192708964040404,47.32293600017258],"type":"Point"},"properties":{"objectid":12,"communes":"Dijon","nom":"Perri\u00e8res","code_insee":"21231","lignes":"B10; B12","code_mkg":"08_179_a","terminus_1":null,"geo_point_2d":{"lon":5.0192708964040404,"lat":47.32293600017258}}},{"type":"Feature","geometry":{"coordinates":[5.068904053593755,47.32879713384588],"type":"Point"},"properties":{"objectid":19,"communes":"Dijon","nom":"Billardon","code_insee":"21231","lignes":"B19; F43","code_mkg":"08_028_f","terminus_1":null,"geo_point_2d":{"lon":5.068904053593755,"lat":47.32879713384588}}},{"type":"Feature","geometry":{"coordinates":[5.019908690765803,47.336948788001905],"type":"Point"},"properties":{"objectid":20,"communes":"Dijon","nom":"Lyc\u00e9e Montchapet","code_insee":"21231","lignes":"CG21","code_mkg":null,"terminus_1":null,"geo_point_2d":{"lon":5.019908690765803,"lat":47.336948788001905}}},{"type":"Feature","geometry":{"coordinates":[4.999629090812399,47.34274698882757],"type":"Point"},"properties":{"objectid":22,"communes":"Talant","nom":"Moulissards","code_insee":"21617","lignes":"L5","code_mkg":"22_020_a","terminus_1":null,"geo_point_2d":{"lon":4.999629090812399,"lat":47.34274698882757}}},{"type":"Feature","geometry":{"coordinates":[5.092680038127252,47.305224498109645],"type":"Point"},"properties":{"objectid":26,"communes":"Dijon","nom":"Site fun\u00e9raire Dijon m\u00e9tropolitain","code_insee":"21231","lignes":"B16","code_mkg":"08_073_a","terminus_1":null,"geo_point_2d":{"lon":5.092680038127252,"lat":47.305224498109645}}},{"type":"Feature","geometry":{"coordinates":[5.030346037636525,47.35555252709501],"type":"Point"},"properties":{"objectid":32,"communes":"Fontaine-l\u00e8s-Dijon","nom":"FONTAINE C.Cial","code_insee":"21278","lignes":"L9","code_mkg":"10_010_a","terminus_1":null,"geo_point_2d":{"lon":5.030346037636525,"lat":47.35555252709501}}},{"type":"Feature","geometry":{"coordinates":[5.011377811403558,47.332256999831586],"type":"Point"},"properties":{"objectid":34,"communes":"Talant","nom":"Lib\u00e9ration","code_insee":"21617","lignes":"B10","code_mkg":"22_016_a","terminus_1":null,"geo_point_2d":{"lon":5.011377811403558,"lat":47.332256999831586}}},{"type":"Feature","geometry":{"coordinates":[5.110082387912579,47.30845256026503],"type":"Point"},"properties":{"objectid":49,"communes":"Quetigny","nom":"Atria","code_insee":"21515","lignes":"L7; F41; R36; R37","code_mkg":"19_002_a","terminus_1":null,"geo_point_2d":{"lon":5.110082387912579,"lat":47.30845256026503}}},{"type":"Feature","geometry":{"coordinates":[5.042353839338278,47.327416721983724],"type":"Point"},"properties":{"objectid":50,"communes":"Dijon","nom":"Cours Fleury","code_insee":"21231","lignes":"B10","code_mkg":"08_076_b","terminus_1":null,"geo_point_2d":{"lon":5.042353839338278,"lat":47.327416721983724}}},{"type":"Feature","geometry":{"coordinates":[5.0516748491719055,47.33617410695513],"type":"Point"},"properties":{"objectid":51,"communes":"Dijon","nom":"Giraud","code_insee":"21231","lignes":"L6","code_mkg":"08_114_a","terminus_1":null,"geo_point_2d":{"lon":5.0516748491719055,"lat":47.33617410695513}}},{"type":"Feature","geometry":{"coordinates":[5.045391829371853,47.310184599586556],"type":"Point"},"properties":{"objectid":53,"communes":"Dijon","nom":"Le N\u00f4tre","code_insee":"21231","lignes":"L6","code_mkg":"08_137_b","terminus_1":null,"geo_point_2d":{"lon":5.045391829371853,"lat":47.310184599586556}}},{"type":"Feature","geometry":{"coordinates":[5.148293312863399,47.29106801337974],"type":"Point"},"properties":{"objectid":54,"communes":"Chevigny-Saint-Sauveur","nom":"Menuisiers","code_insee":"21171","lignes":"R37; F41; BC72","code_mkg":"05_018_b","terminus_1":null,"geo_point_2d":{"lon":5.148293312863399,"lat":47.29106801337974}}},{"type":"Feature","geometry":{"coordinates":[5.137044281200702,47.302230605872445],"type":"Point"},"properties":{"objectid":55,"communes":"Chevigny-Saint-Sauveur","nom":"Chevigny Mairie","code_insee":"21171","lignes":"R36; R37; BC64; BC72; Flex_Night","code_mkg":"05_007_c","terminus_1":null,"geo_point_2d":{"lon":5.137044281200702,"lat":47.302230605872445}}},{"type":"Feature","geometry":{"coordinates":[5.146173512228029,47.29341350058265],"type":"Point"},"properties":{"objectid":57,"communes":"Chevigny-Saint-Sauveur","nom":"Artisans","code_insee":"21171","lignes":"R37; BC72","code_mkg":"05_001_b","terminus_1":null,"geo_point_2d":{"lon":5.146173512228029,"lat":47.29341350058265}}},{"type":"Feature","geometry":{"coordinates":[5.137191331027262,47.30214142429183],"type":"Point"},"properties":{"objectid":58,"communes":"Chevigny-Saint-Sauveur","nom":"Chevigny Mairie","code_insee":"21171","lignes":"R36; R37; BC64; BC72; Flex_Night","code_mkg":"05_007_d","terminus_1":null,"geo_point_2d":{"lon":5.137191331027262,"lat":47.30214142429183}}},{"type":"Feature","geometry":{"coordinates":[5.070020752026698,47.32920582733498],"type":"Point"},"properties":{"objectid":61,"communes":"Dijon","nom":"Billardon","code_insee":"21231","lignes":"Corol; BC74","code_mkg":"08_028_a","terminus_1":null,"geo_point_2d":{"lon":5.070020752026698,"lat":47.32920582733498}}},{"type":"Feature","geometry":{"coordinates":[5.052937030870801,47.33399800029737],"type":"Point"},"properties":{"objectid":62,"communes":"Dijon","nom":"Alsace","code_insee":"21231","lignes":"L6","code_mkg":"08_009_b","terminus_1":null,"geo_point_2d":{"lon":5.052937030870801,"lat":47.33399800029737}}},{"type":"Feature","geometry":{"coordinates":[5.037888739592718,47.29365053279278],"type":"Point"},"properties":{"objectid":64,"communes":"Longvic","nom":"Bertin","code_insee":"21355","lignes":"B18","code_mkg":"12_003_a","terminus_1":null,"geo_point_2d":{"lon":5.037888739592718,"lat":47.29365053279278}}},{"type":"Feature","geometry":{"coordinates":[5.059309005424085,47.32960299970477],"type":"Point"},"properties":{"objectid":66,"communes":"Dijon","nom":"Poincar\u00e9","code_insee":"21231","lignes":"F40","code_mkg":"08_187_a","terminus_1":null,"geo_point_2d":{"lon":5.059309005424085,"lat":47.32960299970477}}},{"type":"Feature","geometry":{"coordinates":[5.01723007331157,47.31384068512702],"type":"Point"},"properties":{"objectid":71,"communes":"Dijon","nom":"Diebold","code_insee":"21231","lignes":"L4; R33; Corol; R34; R35","code_mkg":"08_090_b","terminus_1":null,"geo_point_2d":{"lon":5.01723007331157,"lat":47.31384068512702}}},{"type":"Feature","geometry":{"coordinates":[5.087969850897355,47.331829407480555],"type":"Point"},"properties":{"objectid":74,"communes":"Saint-Apollinaire","nom":"Paquier d'Aupr\u00e9","code_insee":"21540","lignes":"F43; L8","code_mkg":"20_019_b","terminus_1":null,"geo_point_2d":{"lon":5.087969850897355,"lat":47.331829407480555}}},{"type":"Feature","geometry":{"coordinates":[5.0825761567158,47.33104059353193],"type":"Point"},"properties":{"objectid":75,"communes":"Saint-Apollinaire","nom":"Gauthier","code_insee":"21540","lignes":"F43; L8","code_mkg":"20_009_b","terminus_1":null,"geo_point_2d":{"lon":5.0825761567158,"lat":47.33104059353193}}},{"type":"Feature","geometry":{"coordinates":[5.003940267341629,47.29609758741253],"type":"Point"},"properties":{"objectid":80,"communes":"Chen\u00f4ve","nom":"Coll\u00e8ge Chapitre","code_insee":"21166","lignes":"L4","code_mkg":"04_005_a","terminus_1":null,"geo_point_2d":{"lon":5.003940267341629,"lat":47.29609758741253}}},{"type":"Feature","geometry":{"coordinates":[4.991124535307061,47.30429693832953],"type":"Point"},"properties":{"objectid":81,"communes":"Dijon","nom":"Sembel","code_insee":"21231","lignes":"R34","code_mkg":"08_216_a","terminus_1":null,"geo_point_2d":{"lon":4.991124535307061,"lat":47.30429693832953}}},{"type":"Feature","geometry":{"coordinates":[5.036955000028846,47.32413500008265],"type":"Point"},"properties":{"objectid":87,"communes":"Dijon","nom":"De Brosses","code_insee":"21231","lignes":"L9","code_mkg":"08_084_a","terminus_1":null,"geo_point_2d":{"lon":5.036955000028846,"lat":47.32413500008265}}},{"type":"Feature","geometry":{"coordinates":[5.034216185096246,47.333821809819476],"type":"Point"},"properties":{"objectid":89,"communes":"Dijon","nom":"Hoin","code_insee":"21231","lignes":"L9","code_mkg":"08_120_b","terminus_1":null,"geo_point_2d":{"lon":5.034216185096246,"lat":47.333821809819476}}},{"type":"Feature","geometry":{"coordinates":[5.033905121679165,47.31600728590384],"type":"Point"},"properties":{"objectid":94,"communes":"Dijon","nom":"Suquet","code_insee":"21231","lignes":"L5; B12; B18; PL; City","code_mkg":"08_234_a","terminus_1":null,"geo_point_2d":{"lon":5.033905121679165,"lat":47.31600728590384}}},{"type":"Feature","geometry":{"coordinates":[5.023382187068559,47.315142999838486],"type":"Point"},"properties":{"objectid":97,"communes":"Dijon","nom":"Ste-Chantal","code_insee":"21231","lignes":"L4; Corol; R33; R34; R35","code_mkg":"08_226_b","terminus_1":null,"geo_point_2d":{"lon":5.023382187068559,"lat":47.315142999838486}}},{"type":"Feature","geometry":{"coordinates":[4.997483745852293,47.27760308594899],"type":"Point"},"properties":{"objectid":99,"communes":"Marsannay-la-C\u00f4te","nom":"Champforey","code_insee":"21390","lignes":"B14; LR114","code_mkg":"14_004_a","terminus_1":null,"geo_point_2d":{"lon":4.997483745852293,"lat":47.27760308594899}}},{"type":"Feature","geometry":{"coordinates":[5.005888645603272,47.28524504433556],"type":"Point"},"properties":{"objectid":104,"communes":"Chen\u00f4ve","nom":"Bicentenaire","code_insee":"21166","lignes":"L4","code_mkg":"04_001_a","terminus_1":null,"geo_point_2d":{"lon":5.005888645603272,"lat":47.28524504433556}}},{"type":"Feature","geometry":{"coordinates":[4.999392743374506,47.32115467319106],"type":"Point"},"properties":{"objectid":105,"communes":"Dijon","nom":"Belin","code_insee":"21231","lignes":"L3; R39","code_mkg":"08_026_a","terminus_1":null,"geo_point_2d":{"lon":4.999392743374506,"lat":47.32115467319106}}},{"type":"Feature","geometry":{"coordinates":[5.014449999574055,47.31195199973094],"type":"Point"},"properties":{"objectid":113,"communes":"Dijon","nom":"Volnay","code_insee":"21231","lignes":"L4","code_mkg":"08_250_b","terminus_1":null,"geo_point_2d":{"lon":5.014449999574055,"lat":47.31195199973094}}},{"type":"Feature","geometry":{"coordinates":[5.023118019566094,47.337608999847205],"type":"Point"},"properties":{"objectid":114,"communes":"Fontaine-l\u00e8s-Dijon","nom":"Amandiers","code_insee":"21278","lignes":"B13","code_mkg":"10_002_a","terminus_1":null,"geo_point_2d":{"lon":5.023118019566094,"lat":47.337608999847205}}},{"type":"Feature","geometry":{"coordinates":[5.0590368633870435,47.34543380001062],"type":"Point"},"properties":{"objectid":121,"communes":"Dijon","nom":"La Vapeur","code_insee":"21231","lignes":"L6","code_mkg":"08_133_b","terminus_1":null,"geo_point_2d":{"lon":5.0590368633870435,"lat":47.34543380001062}}},{"type":"Feature","geometry":{"coordinates":[5.00647889857741,47.27997497344498],"type":"Point"},"properties":{"objectid":122,"communes":"Marsannay-la-C\u00f4te","nom":"MARSANNAY","code_insee":"21390","lignes":"L4; B15","code_mkg":"14_008_a","terminus_1":null,"geo_point_2d":{"lon":5.00647889857741,"lat":47.27997497344498}}},{"type":"Feature","geometry":{"coordinates":[5.008342324443541,47.28453210238946],"type":"Point"},"properties":{"objectid":123,"communes":"Chen\u00f4ve","nom":"Grands Crus","code_insee":"21166","lignes":"L4","code_mkg":"04_010_a","terminus_1":null,"geo_point_2d":{"lon":5.008342324443541,"lat":47.28453210238946}}},{"type":"Feature","geometry":{"coordinates":[5.012763976642132,47.31333499970803],"type":"Point"},"properties":{"objectid":128,"communes":"Dijon","nom":"Bourroches Eiffel","code_insee":"21231","lignes":"B13; R35; Corol; R33; DP; R34","code_mkg":"08_037_c","terminus_1":null,"geo_point_2d":{"lon":5.012763976642132,"lat":47.31333499970803}}},{"type":"Feature","geometry":{"coordinates":[5.032359464174701,47.336501173036545],"type":"Point"},"properties":{"objectid":133,"communes":"Fontaine-l\u00e8s-Dijon","nom":"Terrillon","code_insee":"21278","lignes":"Corol","code_mkg":"10_028_a","terminus_1":null,"geo_point_2d":{"lon":5.032359464174701,"lat":47.336501173036545}}},{"type":"Feature","geometry":{"coordinates":[4.995409965961945,47.316447999838665],"type":"Point"},"properties":{"objectid":136,"communes":"Dijon","nom":"Paupion","code_insee":"21231","lignes":"B13","code_mkg":"08_175_b","terminus_1":null,"geo_point_2d":{"lon":4.995409965961945,"lat":47.316447999838665}}},{"type":"Feature","geometry":{"coordinates":[5.017490804272836,47.28664985117933],"type":"Point"},"properties":{"objectid":139,"communes":"Chen\u00f4ve","nom":"Palissy","code_insee":"21166","lignes":"F42","code_mkg":"04_027_a","terminus_1":null,"geo_point_2d":{"lon":5.017490804272836,"lat":47.28664985117933}}},{"type":"Feature","geometry":{"coordinates":[5.023204836986563,47.34322875380392],"type":"Point"},"properties":{"objectid":145,"communes":"Fontaine-l\u00e8s-Dijon","nom":"F\u00e9lizots","code_insee":"21278","lignes":"L9","code_mkg":"10_009_b","terminus_1":null,"geo_point_2d":{"lon":5.023204836986563,"lat":47.34322875380392}}},{"type":"Feature","geometry":{"coordinates":[5.025022029268801,47.3362099999981],"type":"Point"},"properties":{"objectid":146,"communes":"Fontaine-l\u00e8s-Dijon","nom":"Houdart","code_insee":"21278","lignes":"B13","code_mkg":"10_014_b","terminus_1":null,"geo_point_2d":{"lon":5.025022029268801,"lat":47.3362099999981}}},{"type":"Feature","geometry":{"coordinates":[5.0136169640779835,47.28760024143455],"type":"Point"},"properties":{"objectid":149,"communes":"Chen\u00f4ve","nom":"Route de Beaune","code_insee":"21166","lignes":"F42","code_mkg":"04_015_d","terminus_1":null,"geo_point_2d":{"lon":5.0136169640779835,"lat":47.28760024143455}}},{"type":"Feature","geometry":{"coordinates":[5.060266017557815,47.335069000271005],"type":"Point"},"properties":{"objectid":155,"communes":"Dijon","nom":"Boutaric","code_insee":"21231","lignes":"F40","code_mkg":"08_038_d","terminus_1":null,"geo_point_2d":{"lon":5.060266017557815,"lat":47.335069000271005}}},{"type":"Feature","geometry":{"coordinates":[5.06072187471167,47.3365310001214],"type":"Point"},"properties":{"objectid":157,"communes":"Dijon","nom":"Dallas CRI","code_insee":"21231","lignes":"F40","code_mkg":"08_081_c","terminus_1":null,"geo_point_2d":{"lon":5.06072187471167,"lat":47.3365310001214}}},{"type":"Feature","geometry":{"coordinates":[5.0640091973650545,47.28695502953802],"type":"Point"},"properties":{"objectid":158,"communes":"Longvic","nom":"LONGVIC Centre","code_insee":"21355","lignes":"B18; BC62","code_mkg":"12_023_d","terminus_1":null,"geo_point_2d":{"lon":5.0640091973650545,"lat":47.28695502953802}}},{"type":"Feature","geometry":{"coordinates":[5.0467576549026765,47.2820983016903],"type":"Point"},"properties":{"objectid":159,"communes":"Longvic","nom":"Pierrat","code_insee":"21355","lignes":"B18","code_mkg":"12_021_a","terminus_1":null,"geo_point_2d":{"lon":5.0467576549026765,"lat":47.2820983016903}}},{"type":"Feature","geometry":{"coordinates":[5.046003010080057,47.29148933757714],"type":"Point"},"properties":{"objectid":160,"communes":"Longvic","nom":"Neel","code_insee":"21355","lignes":"B18","code_mkg":"12_020_a","terminus_1":null,"geo_point_2d":{"lon":5.046003010080057,"lat":47.29148933757714}}},{"type":"Feature","geometry":{"coordinates":[5.039874896523351,47.29753692704792],"type":"Point"},"properties":{"objectid":162,"communes":"Longvic","nom":"La Colombi\u00e8re","code_insee":"21355","lignes":"B18","code_mkg":"12_014_b","terminus_1":null,"geo_point_2d":{"lon":5.039874896523351,"lat":47.29753692704792}}},{"type":"Feature","geometry":{"coordinates":[5.049988143776687,47.28941068203238],"type":"Point"},"properties":{"objectid":163,"communes":"Longvic","nom":"Ateliers APF","code_insee":"21355","lignes":"B18","code_mkg":"12_001_a","terminus_1":null,"geo_point_2d":{"lon":5.049988143776687,"lat":47.28941068203238}}},{"type":"Feature","geometry":{"coordinates":[5.000848769501073,47.34458799974338],"type":"Point"},"properties":{"objectid":167,"communes":"Daix","nom":"Maladi\u00e8re","code_insee":"21223","lignes":"R30; BC65","code_mkg":"07_007_b","terminus_1":null,"geo_point_2d":{"lon":5.000848769501073,"lat":47.34458799974338}}},{"type":"Feature","geometry":{"coordinates":[5.066040329911146,47.322313932139444],"type":"Point"},"properties":{"objectid":171,"communes":"Dijon","nom":"Parc des Sports","code_insee":"21231","lignes":"Corol","code_mkg":"08_169_c","terminus_1":null,"geo_point_2d":{"lon":5.066040329911146,"lat":47.322313932139444}}},{"type":"Feature","geometry":{"coordinates":[5.05849313780354,47.29137900042209],"type":"Point"},"properties":{"objectid":176,"communes":"Longvic","nom":"Bouhey","code_insee":"21355","lignes":"L6","code_mkg":"12_006_b","terminus_1":null,"geo_point_2d":{"lon":5.05849313780354,"lat":47.29137900042209}}},{"type":"Feature","geometry":{"coordinates":[5.065238999348686,47.32271799959957],"type":"Point"},"properties":{"objectid":181,"communes":"Dijon","nom":"Parc des Sports","code_insee":"21231","lignes":"L3","code_mkg":"08_169_b","terminus_1":null,"geo_point_2d":{"lon":5.065238999348686,"lat":47.32271799959957}}},{"type":"Feature","geometry":{"coordinates":[5.011758751314776,47.29559745001481],"type":"Point"},"properties":{"objectid":196,"communes":"Chen\u00f4ve","nom":"Bazin","code_insee":"21166","lignes":"F42; LR114","code_mkg":"04_021_a","terminus_1":null,"geo_point_2d":{"lon":5.011758751314776,"lat":47.29559745001481}}},{"type":"Feature","geometry":{"coordinates":[5.041259839703577,47.286096270738845],"type":"Point"},"properties":{"objectid":202,"communes":"Longvic","nom":"Rue du Port","code_insee":"21355","lignes":"B18","code_mkg":"12_025_b","terminus_1":null,"geo_point_2d":{"lon":5.041259839703577,"lat":47.286096270738845}}},{"type":"Feature","geometry":{"coordinates":[5.040102958871222,47.28699499982085],"type":"Point"},"properties":{"objectid":203,"communes":"Longvic","nom":"Romelet","code_insee":"21355","lignes":"B18","code_mkg":"12_024_b","terminus_1":null,"geo_point_2d":{"lon":5.040102958871222,"lat":47.28699499982085}}},{"type":"Feature","geometry":{"coordinates":[5.063955186539406,47.28707062169646],"type":"Point"},"properties":{"objectid":204,"communes":"Longvic","nom":"LONGVIC Centre","code_insee":"21355","lignes":"B18; BC62","code_mkg":"12_023_c","terminus_1":null,"geo_point_2d":{"lon":5.063955186539406,"lat":47.28707062169646}}},{"type":"Feature","geometry":{"coordinates":[5.07658910783812,47.332701000140304],"type":"Point"},"properties":{"objectid":206,"communes":"Saint-Apollinaire","nom":"Vigne aux Chiens","code_insee":"21540","lignes":"B19","code_mkg":"20_026_a","terminus_1":null,"geo_point_2d":{"lon":5.07658910783812,"lat":47.332701000140304}}},{"type":"Feature","geometry":{"coordinates":[5.012187957134554,47.28741099983428],"type":"Point"},"properties":{"objectid":214,"communes":"Chen\u00f4ve","nom":"Route de Beaune","code_insee":"21166","lignes":"B14; B15; LR113","code_mkg":"04_015_b","terminus_1":null,"geo_point_2d":{"lon":5.012187957134554,"lat":47.28741099983428}}},{"type":"Feature","geometry":{"coordinates":[5.075109924059537,47.34535819867718],"type":"Point"},"properties":{"objectid":215,"communes":"Dijon","nom":"Breuchilli\u00e8re","code_insee":"21231","lignes":"F40","code_mkg":"08_040_a","terminus_1":null,"geo_point_2d":{"lon":5.075109924059537,"lat":47.34535819867718}}},{"type":"Feature","geometry":{"coordinates":[5.062825203474559,47.35152999993054],"type":"Point"},"properties":{"objectid":220,"communes":"Dijon","nom":"Pont Churchill 1\/2","code_insee":"21231","lignes":"F40","code_mkg":"08_191_b","terminus_1":null,"geo_point_2d":{"lon":5.062825203474559,"lat":47.35152999993054}}},{"type":"Feature","geometry":{"coordinates":[5.078068882459132,47.34738990840348],"type":"Point"},"properties":{"objectid":222,"communes":"Dijon","nom":"Bouchet","code_insee":"21231","lignes":"F40","code_mkg":"08_257_b","terminus_1":null,"geo_point_2d":{"lon":5.078068882459132,"lat":47.34738990840348}}},{"type":"Feature","geometry":{"coordinates":[5.106584072167586,47.321316000088025],"type":"Point"},"properties":{"objectid":223,"communes":"Quetigny","nom":"Allende","code_insee":"21515","lignes":"L7","code_mkg":"19_001_a","terminus_1":null,"geo_point_2d":{"lon":5.106584072167586,"lat":47.321316000088025}}},{"type":"Feature","geometry":{"coordinates":[5.068860053630649,47.326550000243344],"type":"Point"},"properties":{"objectid":225,"communes":"Dijon","nom":"Bouteiller","code_insee":"21231","lignes":"L8","code_mkg":"08_039_a","terminus_1":null,"geo_point_2d":{"lon":5.068860053630649,"lat":47.326550000243344}}},{"type":"Feature","geometry":{"coordinates":[5.0852904429574455,47.3467701647661],"type":"Point"},"properties":{"objectid":228,"communes":"Saint-Apollinaire","nom":"Clairvot","code_insee":"21540","lignes":"F40","code_mkg":"20_005_a","terminus_1":null,"geo_point_2d":{"lon":5.0852904429574455,"lat":47.3467701647661}}},{"type":"Feature","geometry":{"coordinates":[5.0781731083986985,47.34757859310936],"type":"Point"},"properties":{"objectid":229,"communes":"Dijon","nom":"Bouchet","code_insee":"21231","lignes":"F40","code_mkg":"08_257_a","terminus_1":null,"geo_point_2d":{"lon":5.0781731083986985,"lat":47.34757859310936}}},{"type":"Feature","geometry":{"coordinates":[5.066452846011332,47.345897125068795],"type":"Point"},"properties":{"objectid":231,"communes":"Dijon","nom":"Cluj 1\/2","code_insee":"21231","lignes":"F40","code_mkg":"08_066_b","terminus_1":null,"geo_point_2d":{"lon":5.066452846011332,"lat":47.345897125068795}}},{"type":"Feature","geometry":{"coordinates":[5.062870292573778,47.34504302857301],"type":"Point"},"properties":{"objectid":232,"communes":"Dijon","nom":"Dolet","code_insee":"21231","lignes":"F40","code_mkg":"08_092_a","terminus_1":null,"geo_point_2d":{"lon":5.062870292573778,"lat":47.34504302857301}}},{"type":"Feature","geometry":{"coordinates":[5.032990932616315,47.31021999958273],"type":"Point"},"properties":{"objectid":234,"communes":"Dijon","nom":"Coll\u00e8ge Le Parc","code_insee":"21231","lignes":"B18","code_mkg":"08_069_b","terminus_1":null,"geo_point_2d":{"lon":5.032990932616315,"lat":47.31021999958273}}},{"type":"Feature","geometry":{"coordinates":[5.039406776378223,47.28740199992431],"type":"Point"},"properties":{"objectid":237,"communes":"Longvic","nom":"Romelet","code_insee":"21355","lignes":"B18","code_mkg":"12_024_a","terminus_1":null,"geo_point_2d":{"lon":5.039406776378223,"lat":47.28740199992431}}},{"type":"Feature","geometry":{"coordinates":[5.061724822193319,47.23275758376241],"type":"Point"},"properties":{"objectid":240,"communes":"F\u00e9nay","nom":"La Pringolle","code_insee":"21263","lignes":"R32; BC61; BC62","code_mkg":"09_005_a","terminus_1":null,"geo_point_2d":{"lon":5.061724822193319,"lat":47.23275758376241}}},{"type":"Feature","geometry":{"coordinates":[5.050815392072341,47.321645767865654],"type":"Point"},"properties":{"objectid":244,"communes":"Dijon","nom":"Paul Cabet","code_insee":"21231","lignes":"C40; C41; C42; C43; C60","code_mkg":null,"terminus_1":null,"geo_point_2d":{"lon":5.050815392072341,"lat":47.321645767865654}}},{"type":"Feature","geometry":{"coordinates":[5.030379999765915,47.32597299969117],"type":"Point"},"properties":{"objectid":248,"communes":"Dijon","nom":"Spuller","code_insee":"21231","lignes":"L5; B13; R30","code_mkg":"08_220_b","terminus_1":null,"geo_point_2d":{"lon":5.030379999765915,"lat":47.32597299969117}}},{"type":"Feature","geometry":{"coordinates":[5.0516854895812235,47.312978753322675],"type":"Point"},"properties":{"objectid":250,"communes":"Dijon","nom":"Prison","code_insee":"21231","lignes":"L5; PL","code_mkg":"08_195_c","terminus_1":null,"geo_point_2d":{"lon":5.0516854895812235,"lat":47.312978753322675}}},{"type":"Feature","geometry":{"coordinates":[5.012004702046829,47.33699517385116],"type":"Point"},"properties":{"objectid":253,"communes":"Talant","nom":"Chaumi\u00e8res","code_insee":"21617","lignes":"L5; R30","code_mkg":"22_005_b","terminus_1":null,"geo_point_2d":{"lon":5.012004702046829,"lat":47.33699517385116}}},{"type":"Feature","geometry":{"coordinates":[5.073432898117119,47.33268688067525],"type":"Point"},"properties":{"objectid":255,"communes":"Dijon","nom":"Coll\u00e8ge Champollion","code_insee":"21231","lignes":"BC74; C36; C37; C38","code_mkg":"08_274_a","terminus_1":null,"geo_point_2d":{"lon":5.073432898117119,"lat":47.33268688067525}}},{"type":"Feature","geometry":{"coordinates":[5.016565895618542,47.33354709719176],"type":"Point"},"properties":{"objectid":256,"communes":"Dijon","nom":"Clomiers","code_insee":"21231","lignes":"L5; B13 ; C47; C48; C49","code_mkg":"08_064_a","terminus_1":null,"geo_point_2d":{"lon":5.016565895618542,"lat":47.33354709719176}}},{"type":"Feature","geometry":{"coordinates":[5.042514400166828,47.319300656672944],"type":"Point"},"properties":{"objectid":258,"communes":"Dijon","nom":"Biblioth\u00e8que","code_insee":"21231","lignes":"City","code_mkg":"08_027_c","terminus_1":null,"geo_point_2d":{"lon":5.042514400166828,"lat":47.319300656672944}}},{"type":"Feature","geometry":{"coordinates":[4.993729497103256,47.33725803279359],"type":"Point"},"properties":{"objectid":267,"communes":"Talant","nom":"Picasso","code_insee":"21617","lignes":"L5; B10","code_mkg":"22_027_b","terminus_1":null,"geo_point_2d":{"lon":4.993729497103256,"lat":47.33725803279359}}},{"type":"Feature","geometry":{"coordinates":[4.970552498580955,47.340618620241735],"type":"Point"},"properties":{"objectid":268,"communes":"Plombi\u00e8res-l\u00e8s-Dijon","nom":"Victor Hugo","code_insee":"21485","lignes":"B12; BC70","code_mkg":"18_011_b","terminus_1":null,"geo_point_2d":{"lon":4.970552498580955,"lat":47.340618620241735}}},{"type":"Feature","geometry":{"coordinates":[5.067277469772752,47.352392708006256],"type":"Point"},"properties":{"objectid":277,"communes":"Dijon","nom":"Ardennes 1\/2","code_insee":"21231","lignes":"F40","code_mkg":"08_011_b","terminus_1":null,"geo_point_2d":{"lon":5.067277469772752,"lat":47.352392708006256}}},{"type":"Feature","geometry":{"coordinates":[5.030583000150718,47.31675000014455],"type":"Point"},"properties":{"objectid":284,"communes":"Dijon","nom":"Monge Cit\u00e9 de la gastronomie","code_insee":"21231","lignes":"L4; L5; L9; B12; B18; R38; PL; R33; DP; City; LR113; R34; R35","code_mkg":"08_155_a","terminus_1":null,"geo_point_2d":{"lon":5.030583000150718,"lat":47.31675000014455}}},{"type":"Feature","geometry":{"coordinates":[5.063856901069011,47.30377716561346],"type":"Point"},"properties":{"objectid":292,"communes":"Dijon","nom":"Cimeti\u00e8re","code_insee":"21231","lignes":"L8","code_mkg":"08_061_b","terminus_1":null,"geo_point_2d":{"lon":5.063856901069011,"lat":47.30377716561346}}},{"type":"Feature","geometry":{"coordinates":[5.045812203526529,47.31529930163222],"type":"Point"},"properties":{"objectid":296,"communes":"Dijon","nom":"Baudin","code_insee":"21231","lignes":"L5; PL ; L8; BC74","code_mkg":"08_022_a","terminus_1":null,"geo_point_2d":{"lon":5.045812203526529,"lat":47.31529930163222}}},{"type":"Feature","geometry":{"coordinates":[5.01414303013712,47.314314304568626],"type":"Point"},"properties":{"objectid":299,"communes":"Dijon","nom":"Bourroches Eiffel","code_insee":"21231","lignes":"B13","code_mkg":"08_037_d","terminus_1":null,"geo_point_2d":{"lon":5.01414303013712,"lat":47.314314304568626}}},{"type":"Feature","geometry":{"coordinates":[4.991743087281906,47.31689399967712],"type":"Point"},"properties":{"objectid":300,"communes":"Dijon","nom":"CFA-BTP","code_insee":"21231","lignes":"B13","code_mkg":"08_048_a","terminus_1":null,"geo_point_2d":{"lon":4.991743087281906,"lat":47.31689399967712}}},{"type":"Feature","geometry":{"coordinates":[5.063024441258253,47.31231377773711],"type":"Point"},"properties":{"objectid":304,"communes":"Dijon","nom":"Mansart","code_insee":"21231","lignes":"L5; PL","code_mkg":"08_148_a","terminus_1":null,"geo_point_2d":{"lon":5.063024441258253,"lat":47.31231377773711}}},{"type":"Feature","geometry":{"coordinates":[5.052171518557819,47.350476990951634],"type":"Point"},"properties":{"objectid":309,"communes":"Dijon","nom":"Granville","code_insee":"21231","lignes":"L6; BC71","code_mkg":"08_117_b","terminus_1":null,"geo_point_2d":{"lon":5.052171518557819,"lat":47.350476990951634}}},{"type":"Feature","geometry":{"coordinates":[5.026574550910422,47.34683569687385],"type":"Point"},"properties":{"objectid":316,"communes":"Fontaine-l\u00e8s-Dijon","nom":"Monnet","code_insee":"21278","lignes":"L9","code_mkg":"10_019_b","terminus_1":null,"geo_point_2d":{"lon":5.026574550910422,"lat":47.34683569687385}}},{"type":"Feature","geometry":{"coordinates":[5.071479698654816,47.30923543432032],"type":"Point"},"properties":{"objectid":317,"communes":"Dijon","nom":"21\u00e8me Si\u00e8cle","code_insee":"21231","lignes":"L5; PL","code_mkg":"08_003_b","terminus_1":null,"geo_point_2d":{"lon":5.071479698654816,"lat":47.30923543432032}}},{"type":"Feature","geometry":{"coordinates":[5.073108621671592,47.310931191883206],"type":"Point"},"properties":{"objectid":318,"communes":"Dijon","nom":"Universit\u00e9","code_insee":"21231","lignes":"L5; PL","code_mkg":"08_245_a","terminus_1":"Terminus","geo_point_2d":{"lon":5.073108621671592,"lat":47.310931191883206}}},{"type":"Feature","geometry":{"coordinates":[5.013840928424817,47.2981887848248],"type":"Point"},"properties":{"objectid":319,"communes":"Chen\u00f4ve","nom":"Gambetta","code_insee":"21166","lignes":"F42; LR114","code_mkg":"04_022_b","terminus_1":null,"geo_point_2d":{"lon":5.013840928424817,"lat":47.2981887848248}}},{"type":"Feature","geometry":{"coordinates":[5.057304363687997,47.34845841710853],"type":"Point"},"properties":{"objectid":323,"communes":"Dijon","nom":"Roosevelt","code_insee":"21231","lignes":"L6; BC71","code_mkg":"08_205_b","terminus_1":null,"geo_point_2d":{"lon":5.057304363687997,"lat":47.34845841710853}}},{"type":"Feature","geometry":{"coordinates":[5.046609372409874,47.3079404155501],"type":"Point"},"properties":{"objectid":324,"communes":"Dijon","nom":"Piscine Carrousel","code_insee":"21231","lignes":"L6","code_mkg":"08_184_b","terminus_1":null,"geo_point_2d":{"lon":5.046609372409874,"lat":47.3079404155501}}},{"type":"Feature","geometry":{"coordinates":[5.035313746071578,47.34691777455116],"type":"Point"},"properties":{"objectid":325,"communes":"Dijon","nom":"Le Suzon","code_insee":"21231","lignes":"B10","code_mkg":"10_015_d","terminus_1":null,"geo_point_2d":{"lon":5.035313746071578,"lat":47.34691777455116}}},{"type":"Feature","geometry":{"coordinates":[5.132594373487714,47.302104259876465],"type":"Point"},"properties":{"objectid":334,"communes":"Chevigny-Saint-Sauveur","nom":"Moli\u00e8re","code_insee":"21171","lignes":"L7; R36; R37; BC64; BC72; Flex_Night","code_mkg":"05_019_a","terminus_1":null,"geo_point_2d":{"lon":5.132594373487714,"lat":47.302104259876465}}},{"type":"Feature","geometry":{"coordinates":[5.024370193062948,47.34574899978636],"type":"Point"},"properties":{"objectid":336,"communes":"Fontaine-l\u00e8s-Dijon","nom":"Les Charmes","code_insee":"21278","lignes":"L9","code_mkg":"10_016_a","terminus_1":null,"geo_point_2d":{"lon":5.024370193062948,"lat":47.34574899978636}}},{"type":"Feature","geometry":{"coordinates":[5.057342703375576,47.340804114100465],"type":"Point"},"properties":{"objectid":337,"communes":"Dijon","nom":"Quantin","code_insee":"21231","lignes":"L6","code_mkg":"08_197_a","terminus_1":null,"geo_point_2d":{"lon":5.057342703375576,"lat":47.340804114100465}}},{"type":"Feature","geometry":{"coordinates":[4.99778699855102,47.31560299970073],"type":"Point"},"properties":{"objectid":338,"communes":"Dijon","nom":"Lyc\u00e9e Marcs d'Or","code_insee":"21231","lignes":"B13","code_mkg":"08_145_b","terminus_1":null,"geo_point_2d":{"lon":4.99778699855102,"lat":47.31560299970073}}},{"type":"Feature","geometry":{"coordinates":[4.987149628687667,47.31568967403119],"type":"Point"},"properties":{"objectid":340,"communes":"Dijon","nom":"Motte Giron","code_insee":"21231","lignes":"B13","code_mkg":"08_160_a","terminus_1":"Terminus","geo_point_2d":{"lon":4.987149628687667,"lat":47.31568967403119}}},{"type":"Feature","geometry":{"coordinates":[5.027202774218782,47.34194807470127],"type":"Point"},"properties":{"objectid":344,"communes":"Fontaine-l\u00e8s-Dijon","nom":"Jura","code_insee":"21278","lignes":"L9","code_mkg":"10_033_b","terminus_1":null,"geo_point_2d":{"lon":5.027202774218782,"lat":47.34194807470127}}},{"type":"Feature","geometry":{"coordinates":[5.027168044236653,47.34203858179024],"type":"Point"},"properties":{"objectid":345,"communes":"Fontaine-l\u00e8s-Dijon","nom":"Jura","code_insee":"21278","lignes":"L9","code_mkg":"10_033_a","terminus_1":null,"geo_point_2d":{"lon":5.027168044236653,"lat":47.34203858179024}}},{"type":"Feature","geometry":{"coordinates":[5.044194221875521,47.31305899970243],"type":"Point"},"properties":{"objectid":347,"communes":"Dijon","nom":"Princes de Cond\u00e9","code_insee":"21231","lignes":"L6","code_mkg":"08_194_b","terminus_1":null,"geo_point_2d":{"lon":5.044194221875521,"lat":47.31305899970243}}},{"type":"Feature","geometry":{"coordinates":[5.143735126905308,47.29893198275678],"type":"Point"},"properties":{"objectid":353,"communes":"Chevigny-Saint-Sauveur","nom":"G\u00e9raniums","code_insee":"21171","lignes":"R37; BC72","code_mkg":"05_012_a","terminus_1":null,"geo_point_2d":{"lon":5.143735126905308,"lat":47.29893198275678}}},{"type":"Feature","geometry":{"coordinates":[5.045065045233065,47.32530785442646],"type":"Point"},"properties":{"objectid":356,"communes":"Dijon","nom":"J.J.Rousseau","code_insee":"21231","lignes":"City","code_mkg":"08_128_a","terminus_1":null,"geo_point_2d":{"lon":5.045065045233065,"lat":47.32530785442646}}},{"type":"Feature","geometry":{"coordinates":[5.080659977914533,47.311626423963006],"type":"Point"},"properties":{"objectid":358,"communes":"Dijon","nom":"CREPS","code_insee":"21231","lignes":"B16","code_mkg":"08_077_b","terminus_1":null,"geo_point_2d":{"lon":5.080659977914533,"lat":47.311626423963006}}},{"type":"Feature","geometry":{"coordinates":[5.0396604805207925,47.329025118811245],"type":"Point"},"properties":{"objectid":361,"communes":"Dijon","nom":"Barbe","code_insee":"21231","lignes":"B10","code_mkg":"08_019_a","terminus_1":null,"geo_point_2d":{"lon":5.0396604805207925,"lat":47.329025118811245}}},{"type":"Feature","geometry":{"coordinates":[5.042078414482059,47.322180037196745],"type":"Point"},"properties":{"objectid":364,"communes":"Dijon","nom":"Beaux-Arts","code_insee":"21231","lignes":"City","code_mkg":"08_024_a","terminus_1":null,"geo_point_2d":{"lon":5.042078414482059,"lat":47.322180037196745}}},{"type":"Feature","geometry":{"coordinates":[5.123196067896001,47.30311692972724],"type":"Point"},"properties":{"objectid":369,"communes":"Chevigny-Saint-Sauveur","nom":"Bois du Roy","code_insee":"21171","lignes":"L7; R36; R37; Flex_Night","code_mkg":"05_003_a","terminus_1":null,"geo_point_2d":{"lon":5.123196067896001,"lat":47.30311692972724}}},{"type":"Feature","geometry":{"coordinates":[5.121928586605726,47.30349548111153],"type":"Point"},"properties":{"objectid":370,"communes":"Chevigny-Saint-Sauveur","nom":"Bois du Roy","code_insee":"21171","lignes":"L7; R36; R37; Flex_Night","code_mkg":"05_003_b","terminus_1":null,"geo_point_2d":{"lon":5.121928586605726,"lat":47.30349548111153}}},{"type":"Feature","geometry":{"coordinates":[5.0665384965095726,47.285854912970876],"type":"Point"},"properties":{"objectid":376,"communes":"Longvic","nom":"Bl\u00e9s d'Or","code_insee":"21355","lignes":"B18; BC62; BC66","code_mkg":"12_005_a","terminus_1":null,"geo_point_2d":{"lon":5.0665384965095726,"lat":47.285854912970876}}},{"type":"Feature","geometry":{"coordinates":[5.106039303143906,47.2825745161521],"type":"Point"},"properties":{"objectid":378,"communes":"Neuilly-Crimolois","nom":"Marronniers","code_insee":"21452","lignes":"B16; BC66; BC67; BC69","code_mkg":"15_003_a","terminus_1":null,"geo_point_2d":{"lon":5.106039303143906,"lat":47.2825745161521}}},{"type":"Feature","geometry":{"coordinates":[5.133316016949002,47.2952988129965],"type":"Point"},"properties":{"objectid":380,"communes":"Chevigny-Saint-Sauveur","nom":"Pasteur","code_insee":"21171","lignes":"L7; Flex_Night","code_mkg":"05_020_a","terminus_1":null,"geo_point_2d":{"lon":5.133316016949002,"lat":47.2952988129965}}},{"type":"Feature","geometry":{"coordinates":[5.111156156029722,47.27789321349537],"type":"Point"},"properties":{"objectid":381,"communes":"Neuilly-Crimolois","nom":"Racine","code_insee":"21452","lignes":"B16; BC66","code_mkg":"15_006_b","terminus_1":null,"geo_point_2d":{"lon":5.111156156029722,"lat":47.27789321349537}}},{"type":"Feature","geometry":{"coordinates":[5.115375090450862,47.27859893102071],"type":"Point"},"properties":{"objectid":382,"communes":"Neuilly-Crimolois","nom":"La Gentiane","code_insee":"21452","lignes":"B16; BC67; BC69","code_mkg":"15_002_b","terminus_1":null,"geo_point_2d":{"lon":5.115375090450862,"lat":47.27859893102071}}},{"type":"Feature","geometry":{"coordinates":[5.1126852037833945,47.314832999855014],"type":"Point"},"properties":{"objectid":383,"communes":"Quetigny","nom":"Cromois","code_insee":"21515","lignes":"B16; LR108","code_mkg":"19_008_a","terminus_1":null,"geo_point_2d":{"lon":5.1126852037833945,"lat":47.314832999855014}}},{"type":"Feature","geometry":{"coordinates":[5.0891151429382635,47.33406800028248],"type":"Point"},"properties":{"objectid":385,"communes":"Saint-Apollinaire","nom":"Marie de Bourgogne","code_insee":"21540","lignes":"B19; BC74; L8","code_mkg":"20_016_b","terminus_1":null,"geo_point_2d":{"lon":5.0891151429382635,"lat":47.33406800028248}}},{"type":"Feature","geometry":{"coordinates":[5.0394420618826254,47.30558600019657],"type":"Point"},"properties":{"objectid":387,"communes":"Dijon","nom":"Morel Retz","code_insee":"21231","lignes":"B12","code_mkg":"08_159_b","terminus_1":null,"geo_point_2d":{"lon":5.0394420618826254,"lat":47.30558600019657}}},{"type":"Feature","geometry":{"coordinates":[5.009660447822938,47.28360194110584],"type":"Point"},"properties":{"objectid":390,"communes":"Chen\u00f4ve","nom":"Langevin","code_insee":"21166","lignes":"L4; B14; B15; LR113","code_mkg":"04_012_a","terminus_1":null,"geo_point_2d":{"lon":5.009660447822938,"lat":47.28360194110584}}},{"type":"Feature","geometry":{"coordinates":[5.105757236126949,47.288172999865886],"type":"Point"},"properties":{"objectid":391,"communes":"Sennecey-l\u00e8s-Dijon","nom":"Le Fort","code_insee":"21605","lignes":"B16; BC69","code_mkg":"21_004_a","terminus_1":null,"geo_point_2d":{"lon":5.105757236126949,"lat":47.288172999865886}}},{"type":"Feature","geometry":{"coordinates":[5.110280991076039,47.29166400006667],"type":"Point"},"properties":{"objectid":392,"communes":"Sennecey-l\u00e8s-Dijon","nom":"Normand","code_insee":"21605","lignes":"B16; BC69","code_mkg":"21_006_a","terminus_1":null,"geo_point_2d":{"lon":5.110280991076039,"lat":47.29166400006667}}},{"type":"Feature","geometry":{"coordinates":[5.01076316803432,47.28476899984748],"type":"Point"},"properties":{"objectid":395,"communes":"Chen\u00f4ve","nom":"Langevin","code_insee":"21166","lignes":"B14; B15 ; LR113","code_mkg":"04_012_b","terminus_1":null,"geo_point_2d":{"lon":5.01076316803432,"lat":47.28476899984748}}},{"type":"Feature","geometry":{"coordinates":[5.11615025154591,47.312272882534046],"type":"Point"},"properties":{"objectid":399,"communes":"Quetigny","nom":"Quetigny Mairie","code_insee":"21515","lignes":"B16","code_mkg":"19_019_a","terminus_1":null,"geo_point_2d":{"lon":5.11615025154591,"lat":47.312272882534046}}},{"type":"Feature","geometry":{"coordinates":[5.1108739266298935,47.27808120175465],"type":"Point"},"properties":{"objectid":400,"communes":"Neuilly-Crimolois","nom":"Racine","code_insee":"21452","lignes":"B16; BC66","code_mkg":"15_006_a","terminus_1":null,"geo_point_2d":{"lon":5.1108739266298935,"lat":47.27808120175465}}},{"type":"Feature","geometry":{"coordinates":[5.107579448480906,47.27982137241066],"type":"Point"},"properties":{"objectid":403,"communes":"Neuilly-Crimolois","nom":"Neuilly Libert\u00e9","code_insee":"21452","lignes":"B16; BC66","code_mkg":"15_005_a","terminus_1":null,"geo_point_2d":{"lon":5.107579448480906,"lat":47.27982137241066}}},{"type":"Feature","geometry":{"coordinates":[5.107099542190384,47.28004124441487],"type":"Point"},"properties":{"objectid":404,"communes":"Neuilly-Crimolois","nom":"Neuilly Libert\u00e9","code_insee":"21452","lignes":"B16; BC66","code_mkg":"15_005_b","terminus_1":null,"geo_point_2d":{"lon":5.107099542190384,"lat":47.28004124441487}}},{"type":"Feature","geometry":{"coordinates":[4.992158266931496,47.275391929182405],"type":"Point"},"properties":{"objectid":409,"communes":"Marsannay-la-C\u00f4te","nom":"Saint-Vincent","code_insee":"21390","lignes":"LR114","code_mkg":null,"terminus_1":null,"geo_point_2d":{"lon":4.992158266931496,"lat":47.275391929182405}}},{"type":"Feature","geometry":{"coordinates":[5.073581457275436,47.31124061070953],"type":"Point"},"properties":{"objectid":411,"communes":"Dijon","nom":"Universit\u00e9","code_insee":"21231","lignes":"L5; PL","code_mkg":"08_245_b","terminus_1":null,"geo_point_2d":{"lon":5.073581457275436,"lat":47.31124061070953}}},{"type":"Feature","geometry":{"coordinates":[4.972986000517517,47.339818000285376],"type":"Point"},"properties":{"objectid":414,"communes":"Plombi\u00e8res-l\u00e8s-Dijon","nom":"Plombi\u00e8res Mairie","code_insee":"21485","lignes":"B12; BC70","code_mkg":"18_007_a","terminus_1":null,"geo_point_2d":{"lon":4.972986000517517,"lat":47.339818000285376}}},{"type":"Feature","geometry":{"coordinates":[5.003821347055234,47.31718935024476],"type":"Point"},"properties":{"objectid":417,"communes":"Dijon","nom":"Chanoine Kir","code_insee":"21231","lignes":"Corol; R39","code_mkg":"08_053_c","terminus_1":null,"geo_point_2d":{"lon":5.003821347055234,"lat":47.31718935024476}}},{"type":"Feature","geometry":{"coordinates":[4.964432269737266,47.345770749964416],"type":"Point"},"properties":{"objectid":419,"communes":"Plombi\u00e8res-l\u00e8s-Dijon","nom":"La Flamme","code_insee":"21485","lignes":"B12; BC70","code_mkg":"18_004_a","terminus_1":null,"geo_point_2d":{"lon":4.964432269737266,"lat":47.345770749964416}}},{"type":"Feature","geometry":{"coordinates":[5.009616851758059,47.27330699992367],"type":"Point"},"properties":{"objectid":422,"communes":"Perrigny-l\u00e8s-Dijon","nom":"Lapostolet","code_insee":"21481","lignes":"B15","code_mkg":"17_002_b","terminus_1":null,"geo_point_2d":{"lon":5.009616851758059,"lat":47.27330699992367}}},{"type":"Feature","geometry":{"coordinates":[5.085544946154655,47.33368388159943],"type":"Point"},"properties":{"objectid":424,"communes":"Saint-Apollinaire","nom":"Saint-Apollinaire Mairie","code_insee":"21540","lignes":"B19","code_mkg":"20_022_b","terminus_1":null,"geo_point_2d":{"lon":5.085544946154655,"lat":47.33368388159943}}},{"type":"Feature","geometry":{"coordinates":[5.023380582750042,47.33461857886619],"type":"Point"},"properties":{"objectid":426,"communes":"Dijon","nom":"Suisse","code_insee":"21231","lignes":"Corol; B13","code_mkg":"08_233_a","terminus_1":null,"geo_point_2d":{"lon":5.023380582750042,"lat":47.33461857886619}}},{"type":"Feature","geometry":{"coordinates":[5.0520607489523455,47.305097215805155],"type":"Point"},"properties":{"objectid":429,"communes":"Dijon","nom":"Coll\u00e8ge Lentill\u00e8res","code_insee":"21231","lignes":"Corol","code_mkg":"08_070_b","terminus_1":null,"geo_point_2d":{"lon":5.0520607489523455,"lat":47.305097215805155}}},{"type":"Feature","geometry":{"coordinates":[5.038358210890866,47.33932600016135],"type":"Point"},"properties":{"objectid":430,"communes":"Fontaine-l\u00e8s-Dijon","nom":"Allobroges","code_insee":"21278","lignes":"Corol","code_mkg":"10_001_a","terminus_1":null,"geo_point_2d":{"lon":5.038358210890866,"lat":47.33932600016135}}},{"type":"Feature","geometry":{"coordinates":[5.0528665976246465,47.298183737244415],"type":"Point"},"properties":{"objectid":434,"communes":"Longvic","nom":"Bourillot","code_insee":"21355","lignes":"L6","code_mkg":"12_007_b","terminus_1":null,"geo_point_2d":{"lon":5.0528665976246465,"lat":47.298183737244415}}},{"type":"Feature","geometry":{"coordinates":[5.021759936237816,47.29769227440074],"type":"Point"},"properties":{"objectid":444,"communes":"Chen\u00f4ve","nom":"Sembat","code_insee":"21166","lignes":"F42; F45","code_mkg":"04_025_b","terminus_1":null,"geo_point_2d":{"lon":5.021759936237816,"lat":47.29769227440074}}},{"type":"Feature","geometry":{"coordinates":[5.032986164745965,47.31214799981208],"type":"Point"},"properties":{"objectid":448,"communes":"Dijon","nom":"Alger","code_insee":"21231","lignes":"B18; LR114","code_mkg":"08_007_a","terminus_1":null,"geo_point_2d":{"lon":5.032986164745965,"lat":47.31214799981208}}},{"type":"Feature","geometry":{"coordinates":[5.032790183591317,47.31175700010393],"type":"Point"},"properties":{"objectid":449,"communes":"Dijon","nom":"Alger","code_insee":"21231","lignes":"B18; LR114","code_mkg":"08_007_b","terminus_1":null,"geo_point_2d":{"lon":5.032790183591317,"lat":47.31175700010393}}},{"type":"Feature","geometry":{"coordinates":[5.065161228828164,47.347681000166446],"type":"Point"},"properties":{"objectid":453,"communes":"Dijon","nom":"Boirac 1\/2","code_insee":"21231","lignes":"F40","code_mkg":"08_031_b","terminus_1":null,"geo_point_2d":{"lon":5.065161228828164,"lat":47.347681000166446}}},{"type":"Feature","geometry":{"coordinates":[5.073947494150247,47.34310789885911],"type":"Point"},"properties":{"objectid":466,"communes":"Dijon","nom":"Escaut","code_insee":"21231","lignes":"F40","code_mkg":"20_008_a","terminus_1":null,"geo_point_2d":{"lon":5.073947494150247,"lat":47.34310789885911}}},{"type":"Feature","geometry":{"coordinates":[5.129919116015392,47.29308633797955],"type":"Point"},"properties":{"objectid":468,"communes":"Chevigny-Saint-Sauveur","nom":"Kennedy","code_insee":"21171","lignes":"L7; F41; Flex_Night","code_mkg":"05_014_b","terminus_1":null,"geo_point_2d":{"lon":5.129919116015392,"lat":47.29308633797955}}},{"type":"Feature","geometry":{"coordinates":[5.057182808228506,47.30826667853009],"type":"Point"},"properties":{"objectid":469,"communes":"Dijon","nom":"Salengro","code_insee":"21231","lignes":"Corol","code_mkg":"08_211_d","terminus_1":null,"geo_point_2d":{"lon":5.057182808228506,"lat":47.30826667853009}}},{"type":"Feature","geometry":{"coordinates":[5.062179088860232,47.30459699981309],"type":"Point"},"properties":{"objectid":470,"communes":"Dijon","nom":"Stade Poussots","code_insee":"21231","lignes":"DP; L8","code_mkg":"08_222_a","terminus_1":null,"geo_point_2d":{"lon":5.062179088860232,"lat":47.30459699981309}}},{"type":"Feature","geometry":{"coordinates":[5.130197581764576,47.292920708368634],"type":"Point"},"properties":{"objectid":477,"communes":"Chevigny-Saint-Sauveur","nom":"Kennedy","code_insee":"21171","lignes":"L7; F41; Flex_Night","code_mkg":"05_014_a","terminus_1":null,"geo_point_2d":{"lon":5.130197581764576,"lat":47.292920708368634}}},{"type":"Feature","geometry":{"coordinates":[5.030120849590466,47.326311999621176],"type":"Point"},"properties":{"objectid":481,"communes":"Dijon","nom":"Spuller","code_insee":"21231","lignes":"L5; B13; R30","code_mkg":"08_220_a","terminus_1":null,"geo_point_2d":{"lon":5.030120849590466,"lat":47.326311999621176}}},{"type":"Feature","geometry":{"coordinates":[5.026640891967281,47.316199999793795],"type":"Point"},"properties":{"objectid":485,"communes":"Dijon","nom":"Rolin","code_insee":"21231","lignes":"Corol; L4; R33; R34; R35","code_mkg":"08_204_a","terminus_1":null,"geo_point_2d":{"lon":5.026640891967281,"lat":47.316199999793795}}},{"type":"Feature","geometry":{"coordinates":[5.036577071545529,47.3001651385261],"type":"Point"},"properties":{"objectid":499,"communes":"Dijon","nom":"Verriers","code_insee":"21231","lignes":"B18","code_mkg":"08_249_a","terminus_1":null,"geo_point_2d":{"lon":5.036577071545529,"lat":47.3001651385261}}},{"type":"Feature","geometry":{"coordinates":[5.048810383264529,47.28995458834957],"type":"Point"},"properties":{"objectid":500,"communes":"Longvic","nom":"Ateliers APF","code_insee":"21355","lignes":"B18","code_mkg":"12_001_b","terminus_1":null,"geo_point_2d":{"lon":5.048810383264529,"lat":47.28995458834957}}},{"type":"Feature","geometry":{"coordinates":[5.038766860851904,47.31081600006417],"type":"Point"},"properties":{"objectid":502,"communes":"Dijon","nom":"INSPE","code_insee":"21231","lignes":"B12; Corol; BC62; BC67; BC68; LR110. LR111; LR112","code_mkg":"08_125_b","terminus_1":null,"geo_point_2d":{"lon":5.038766860851904,"lat":47.31081600006417}}},{"type":"Feature","geometry":{"coordinates":[5.05145189961466,47.31303557497606],"type":"Point"},"properties":{"objectid":506,"communes":"Dijon","nom":"Prison","code_insee":"21231","lignes":"L5; PL","code_mkg":"08_195_d","terminus_1":null,"geo_point_2d":{"lon":5.05145189961466,"lat":47.31303557497606}}},{"type":"Feature","geometry":{"coordinates":[5.025097547944128,47.329366282012565],"type":"Point"},"properties":{"objectid":507,"communes":"Dijon","nom":"G\u00e9nois","code_insee":"21231","lignes":"L5; B13","code_mkg":"08_111_a","terminus_1":null,"geo_point_2d":{"lon":5.025097547944128,"lat":47.329366282012565}}},{"type":"Feature","geometry":{"coordinates":[5.058957099305972,47.309791000146205],"type":"Point"},"properties":{"objectid":508,"communes":"Dijon","nom":"P\u00e9joces","code_insee":"21231","lignes":"Corol","code_mkg":"08_177_b","terminus_1":null,"geo_point_2d":{"lon":5.058957099305972,"lat":47.309791000146205}}},{"type":"Feature","geometry":{"coordinates":[5.044082236912223,47.30689712911659],"type":"Point"},"properties":{"objectid":509,"communes":"Dijon","nom":"Chevreul Piscine","code_insee":"21231","lignes":"Corol","code_mkg":"08_242_b","terminus_1":null,"geo_point_2d":{"lon":5.044082236912223,"lat":47.30689712911659}}},{"type":"Feature","geometry":{"coordinates":[5.064927999480536,47.329226000315856],"type":"Point"},"properties":{"objectid":524,"communes":"Dijon","nom":"Gr\u00e9silles Trimolet","code_insee":"21231","lignes":"L3; F43; B19","code_mkg":"08_118_a","terminus_1":null,"geo_point_2d":{"lon":5.064927999480536,"lat":47.329226000315856}}},{"type":"Feature","geometry":{"coordinates":[5.065681682882715,47.331322636258335],"type":"Point"},"properties":{"objectid":525,"communes":"Dijon","nom":"Ste-Bernadette","code_insee":"21231","lignes":"L3; Corol","code_mkg":"08_225_b","terminus_1":null,"geo_point_2d":{"lon":5.065681682882715,"lat":47.331322636258335}}},{"type":"Feature","geometry":{"coordinates":[5.008719921592,47.320581999630846],"type":"Point"},"properties":{"objectid":527,"communes":"Dijon","nom":"Gorgets","code_insee":"21231","lignes":"L3","code_mkg":"08_115_d","terminus_1":null,"geo_point_2d":{"lon":5.008719921592,"lat":47.320581999630846}}},{"type":"Feature","geometry":{"coordinates":[5.064218286879109,47.339155693288525],"type":"Point"},"properties":{"objectid":528,"communes":"Dijon","nom":"Mayence","code_insee":"21231","lignes":"L3; F40","code_mkg":"08_153_b","terminus_1":null,"geo_point_2d":{"lon":5.064218286879109,"lat":47.339155693288525}}},{"type":"Feature","geometry":{"coordinates":[5.06547541603717,47.31985711688073],"type":"Point"},"properties":{"objectid":530,"communes":"Dijon","nom":"CHU-H\u00f4pitaux","code_insee":"21231","lignes":"L3; Corol","code_mkg":"08_100_a","terminus_1":null,"geo_point_2d":{"lon":5.06547541603717,"lat":47.31985711688073}}},{"type":"Feature","geometry":{"coordinates":[5.055771827327443,47.31832000016954],"type":"Point"},"properties":{"objectid":531,"communes":"Dijon","nom":"Champmaillot","code_insee":"21231","lignes":"L3","code_mkg":"08_050_a","terminus_1":null,"geo_point_2d":{"lon":5.055771827327443,"lat":47.31832000016954}}},{"type":"Feature","geometry":{"coordinates":[5.0519108771402985,47.32094199977092],"type":"Point"},"properties":{"objectid":533,"communes":"Dijon","nom":"30 Octobre","code_insee":"21231","lignes":"L3; L6; BC67; BC74; L8","code_mkg":"08_001_b","terminus_1":null,"geo_point_2d":{"lon":5.0519108771402985,"lat":47.32094199977092}}},{"type":"Feature","geometry":{"coordinates":[5.004630265830872,47.3197361427407],"type":"Point"},"properties":{"objectid":537,"communes":"Dijon","nom":"Champs Perdrix","code_insee":"21231","lignes":"Corol; R39","code_mkg":"08_051_b","terminus_1":null,"geo_point_2d":{"lon":5.004630265830872,"lat":47.3197361427407}}},{"type":"Feature","geometry":{"coordinates":[5.04465200015799,47.32642799972934],"type":"Point"},"properties":{"objectid":539,"communes":"Dijon","nom":"R\u00e9publique","code_insee":"21231","lignes":"L3; L6; City","code_mkg":"08_202_b","terminus_1":null,"geo_point_2d":{"lon":5.04465200015799,"lat":47.32642799972934}}},{"type":"Feature","geometry":{"coordinates":[5.1098208799569464,47.31910776502167],"type":"Point"},"properties":{"objectid":540,"communes":"Quetigny","nom":"Camus","code_insee":"21515","lignes":"L7","code_mkg":"19_003_b","terminus_1":null,"geo_point_2d":{"lon":5.1098208799569464,"lat":47.31910776502167}}},{"type":"Feature","geometry":{"coordinates":[5.109226057172232,47.32057963739088],"type":"Point"},"properties":{"objectid":543,"communes":"Quetigny","nom":"Pr\u00e9vert","code_insee":"21515","lignes":"L7","code_mkg":"19_014_b","terminus_1":null,"geo_point_2d":{"lon":5.109226057172232,"lat":47.32057963739088}}},{"type":"Feature","geometry":{"coordinates":[5.022818258789941,47.304552190817425],"type":"Point"},"properties":{"objectid":550,"communes":"Dijon","nom":"Bourroches","code_insee":"21231","lignes":"LR113","code_mkg":"08_036_b","terminus_1":null,"geo_point_2d":{"lon":5.022818258789941,"lat":47.304552190817425}}},{"type":"Feature","geometry":{"coordinates":[5.013852896708398,47.33081021294208],"type":"Point"},"properties":{"objectid":551,"communes":"Talant","nom":"Ch\u00e8vre Morte","code_insee":"21617","lignes":"Corol","code_mkg":"22_006_a","terminus_1":null,"geo_point_2d":{"lon":5.013852896708398,"lat":47.33081021294208}}},{"type":"Feature","geometry":{"coordinates":[5.105741977794379,47.32104500021263],"type":"Point"},"properties":{"objectid":552,"communes":"Quetigny","nom":"Allende","code_insee":"21515","lignes":"L7","code_mkg":"19_001_b","terminus_1":null,"geo_point_2d":{"lon":5.105741977794379,"lat":47.32104500021263}}},{"type":"Feature","geometry":{"coordinates":[5.0238764583535005,47.36762702750223],"type":"Point"},"properties":{"objectid":553,"communes":"Ahuy","nom":"AHUY","code_insee":"21003","lignes":"B10","code_mkg":"01_001_a","terminus_1":null,"geo_point_2d":{"lon":5.0238764583535005,"lat":47.36762702750223}}},{"type":"Feature","geometry":{"coordinates":[5.019230587110295,47.32236358888808],"type":"Point"},"properties":{"objectid":554,"communes":"Dijon","nom":"Albert 1er","code_insee":"21231","lignes":"L3; B13","code_mkg":"08_006_a","terminus_1":null,"geo_point_2d":{"lon":5.019230587110295,"lat":47.32236358888808}}},{"type":"Feature","geometry":{"coordinates":[5.01943646807382,47.322501788719194],"type":"Point"},"properties":{"objectid":555,"communes":"Dijon","nom":"Albert 1er","code_insee":"21231","lignes":"L3; B13","code_mkg":"08_006_b","terminus_1":null,"geo_point_2d":{"lon":5.01943646807382,"lat":47.322501788719194}}},{"type":"Feature","geometry":{"coordinates":[5.089047936553968,47.33026676372697],"type":"Point"},"properties":{"objectid":556,"communes":"Saint-Apollinaire","nom":"Abb\u00e9 Pierre","code_insee":"21540","lignes":"B19; BC74","code_mkg":"20_001_b","terminus_1":null,"geo_point_2d":{"lon":5.089047936553968,"lat":47.33026676372697}}},{"type":"Feature","geometry":{"coordinates":[5.042024578120244,47.324196944246225],"type":"Point"},"properties":{"objectid":557,"communes":"Dijon","nom":"Pr\u00e9fecture","code_insee":"21231","lignes":"City","code_mkg":"08_193_a","terminus_1":null,"geo_point_2d":{"lon":5.042024578120244,"lat":47.324196944246225}}},{"type":"Feature","geometry":{"coordinates":[5.007881837699559,47.32536195119768],"type":"Point"},"properties":{"objectid":563,"communes":"Talant","nom":"Le Lac","code_insee":"21617","lignes":"B12","code_mkg":"22_014_a","terminus_1":null,"geo_point_2d":{"lon":5.007881837699559,"lat":47.32536195119768}}},{"type":"Feature","geometry":{"coordinates":[5.0564827925033,47.308292999999985],"type":"Point"},"properties":{"objectid":564,"communes":"Dijon","nom":"Salengro","code_insee":"21231","lignes":"L8","code_mkg":"08_211_b","terminus_1":null,"geo_point_2d":{"lon":5.0564827925033,"lat":47.308292999999985}}},{"type":"Feature","geometry":{"coordinates":[4.987122534266686,47.33448850375008],"type":"Point"},"properties":{"objectid":566,"communes":"Plombi\u00e8res-l\u00e8s-Dijon","nom":"Ch\u00e9rains","code_insee":"21485","lignes":"B12; BC70","code_mkg":"18_001_a","terminus_1":null,"geo_point_2d":{"lon":4.987122534266686,"lat":47.33448850375008}}},{"type":"Feature","geometry":{"coordinates":[5.06854024704351,47.33977414417972],"type":"Point"},"properties":{"objectid":571,"communes":"Dijon","nom":"Epirey Cap Nord","code_insee":"21231","lignes":"L3; F40","code_mkg":"08_099_b","terminus_1":null,"geo_point_2d":{"lon":5.06854024704351,"lat":47.33977414417972}}},{"type":"Feature","geometry":{"coordinates":[5.019077778290462,47.34321799958898],"type":"Point"},"properties":{"objectid":576,"communes":"Fontaine-l\u00e8s-Dijon","nom":"Confr\u00e9rie","code_insee":"21278","lignes":"B13","code_mkg":"10_006_a","terminus_1":null,"geo_point_2d":{"lon":5.019077778290462,"lat":47.34321799958898}}},{"type":"Feature","geometry":{"coordinates":[5.02069900001453,47.30018700036713],"type":"Point"},"properties":{"objectid":577,"communes":"Dijon","nom":"Carraz","code_insee":"21231","lignes":"LR113","code_mkg":"08_044_b","terminus_1":null,"geo_point_2d":{"lon":5.02069900001453,"lat":47.30018700036713}}},{"type":"Feature","geometry":{"coordinates":[5.052069327701326,47.33312574526427],"type":"Point"},"properties":{"objectid":582,"communes":"Dijon","nom":"Reims","code_insee":"21231","lignes":"L6","code_mkg":"08_200_a","terminus_1":null,"geo_point_2d":{"lon":5.052069327701326,"lat":47.33312574526427}}},{"type":"Feature","geometry":{"coordinates":[5.036119371537252,47.29176459691283],"type":"Point"},"properties":{"objectid":584,"communes":"Longvic","nom":"Ecoles des M\u00e9tiers","code_insee":"21355","lignes":"B18; LR110; LR111; LR112","code_mkg":"12_008_a","terminus_1":null,"geo_point_2d":{"lon":5.036119371537252,"lat":47.29176459691283}}},{"type":"Feature","geometry":{"coordinates":[5.035931152058177,47.29163929648802],"type":"Point"},"properties":{"objectid":585,"communes":"Longvic","nom":"Ecoles des M\u00e9tiers","code_insee":"21355","lignes":"B18; LR110; LR111; LR112","code_mkg":"12_008_b","terminus_1":null,"geo_point_2d":{"lon":5.035931152058177,"lat":47.29163929648802}}},{"type":"Feature","geometry":{"coordinates":[4.983491924484382,47.335899980414084],"type":"Point"},"properties":{"objectid":587,"communes":"Plombi\u00e8res-l\u00e8s-Dijon","nom":"Vaux Bruns","code_insee":"21485","lignes":"B12; BC70","code_mkg":"18_010_b","terminus_1":null,"geo_point_2d":{"lon":4.983491924484382,"lat":47.335899980414084}}},{"type":"Feature","geometry":{"coordinates":[5.0537872311243435,47.31048600034362],"type":"Point"},"properties":{"objectid":591,"communes":"Dijon","nom":"Guibaudet","code_insee":"21231","lignes":"L8","code_mkg":"08_119_b","terminus_1":null,"geo_point_2d":{"lon":5.0537872311243435,"lat":47.31048600034362}}},{"type":"Feature","geometry":{"coordinates":[5.006671904921545,47.28023300025932],"type":"Point"},"properties":{"objectid":594,"communes":"Marsannay-la-C\u00f4te","nom":"MARSANNAY","code_insee":"21390","lignes":"B14; DP","code_mkg":"14_008_b","terminus_1":null,"geo_point_2d":{"lon":5.006671904921545,"lat":47.28023300025932}}},{"type":"Feature","geometry":{"coordinates":[4.9974379534288165,47.306494999933975],"type":"Point"},"properties":{"objectid":595,"communes":"Dijon","nom":"Claudel","code_insee":"21231","lignes":"R34","code_mkg":"08_063_a","terminus_1":null,"geo_point_2d":{"lon":4.9974379534288165,"lat":47.306494999933975}}},{"type":"Feature","geometry":{"coordinates":[5.1090408024365335,47.320603803796935],"type":"Point"},"properties":{"objectid":599,"communes":"Quetigny","nom":"Pr\u00e9vert","code_insee":"21515","lignes":"L7","code_mkg":"19_014_a","terminus_1":null,"geo_point_2d":{"lon":5.1090408024365335,"lat":47.320603803796935}}},{"type":"Feature","geometry":{"coordinates":[5.104173261490645,47.31148408446973],"type":"Point"},"properties":{"objectid":600,"communes":"Quetigny","nom":"Quetigny C. Cial","code_insee":"21515","lignes":"L7","code_mkg":"19_017_a","terminus_1":null,"geo_point_2d":{"lon":5.104173261490645,"lat":47.31148408446973}}},{"type":"Feature","geometry":{"coordinates":[4.998207783544874,47.32991967415334],"type":"Point"},"properties":{"objectid":604,"communes":"Talant","nom":"Parc \u00e0 Bateaux","code_insee":"21617","lignes":"B12","code_mkg":"22_025_a","terminus_1":null,"geo_point_2d":{"lon":4.998207783544874,"lat":47.32991967415334}}},{"type":"Feature","geometry":{"coordinates":[5.072117433411177,47.27640970260952],"type":"Point"},"properties":{"objectid":609,"communes":"Ouges","nom":"arr\u00eat non-desservi","code_insee":"21473","lignes":"R38","code_mkg":"16_001_a","terminus_1":null,"geo_point_2d":{"lon":5.072117433411177,"lat":47.27640970260952}}},{"type":"Feature","geometry":{"coordinates":[5.051551818467423,47.31234799965374],"type":"Point"},"properties":{"objectid":618,"communes":"Dijon","nom":"Prison","code_insee":"21231","lignes":"L8","code_mkg":"08_195_b","terminus_1":null,"geo_point_2d":{"lon":5.051551818467423,"lat":47.31234799965374}}},{"type":"Feature","geometry":{"coordinates":[4.999210834241188,47.307785000140036],"type":"Point"},"properties":{"objectid":619,"communes":"Dijon","nom":"Dadolle","code_insee":"21231","lignes":"R34","code_mkg":"08_079_a","terminus_1":null,"geo_point_2d":{"lon":4.999210834241188,"lat":47.307785000140036}}},{"type":"Feature","geometry":{"coordinates":[5.009852773373818,47.27845400567438],"type":"Point"},"properties":{"objectid":622,"communes":"Marsannay-la-C\u00f4te","nom":"Dardelain","code_insee":"21390","lignes":"L4","code_mkg":"14_007_a","terminus_1":null,"geo_point_2d":{"lon":5.009852773373818,"lat":47.27845400567438}}},{"type":"Feature","geometry":{"coordinates":[4.998108231043441,47.32299887140113],"type":"Point"},"properties":{"objectid":625,"communes":"Dijon","nom":"Fontaine d'Ouche","code_insee":"21231","lignes":"Corol; R39","code_mkg":"08_108_a","terminus_1":"Terminus","geo_point_2d":{"lon":4.998108231043441,"lat":47.32299887140113}}},{"type":"Feature","geometry":{"coordinates":[5.055141831760438,47.32149965318634],"type":"Point"},"properties":{"objectid":627,"communes":"Dijon","nom":"SNCF Porte Neuve","code_insee":"21231","lignes":"L8","code_mkg":"08_218_b","terminus_1":null,"geo_point_2d":{"lon":5.055141831760438,"lat":47.32149965318634}}},{"type":"Feature","geometry":{"coordinates":[4.9909548764975415,47.30166099969829],"type":"Point"},"properties":{"objectid":630,"communes":"Dijon","nom":"IME Montagne Ste-Anne","code_insee":"21231","lignes":"R34","code_mkg":"08_124_a","terminus_1":null,"geo_point_2d":{"lon":4.9909548764975415,"lat":47.30166099969829}}},{"type":"Feature","geometry":{"coordinates":[5.064988741490284,47.322506393223144],"type":"Point"},"properties":{"objectid":632,"communes":"Dijon","nom":"Parc des Sports","code_insee":"21231","lignes":"L3","code_mkg":"08_169_a","terminus_1":null,"geo_point_2d":{"lon":5.064988741490284,"lat":47.322506393223144}}},{"type":"Feature","geometry":{"coordinates":[5.065212708563101,47.33123365120938],"type":"Point"},"properties":{"objectid":636,"communes":"Dijon","nom":"Ste-Bernadette","code_insee":"21231","lignes":"L3; Corol","code_mkg":"08_225_a","terminus_1":null,"geo_point_2d":{"lon":5.065212708563101,"lat":47.33123365120938}}},{"type":"Feature","geometry":{"coordinates":[5.030355605675598,47.3225620172788],"type":"Point"},"properties":{"objectid":641,"communes":"Dijon","nom":"Gare SNCF","code_insee":"21231","lignes":"L3; L5; B12; B13; B18; R38; City","code_mkg":"08_110_a","terminus_1":null,"geo_point_2d":{"lon":5.030355605675598,"lat":47.3225620172788}}},{"type":"Feature","geometry":{"coordinates":[5.116238244122063,47.30793921615864],"type":"Point"},"properties":{"objectid":652,"communes":"Chevigny-Saint-Sauveur","nom":"Lyc\u00e9e De Serres","code_insee":"21171","lignes":"L7; F41; R36; R37; BC64; Flex_Night","code_mkg":"05_017_a","terminus_1":null,"geo_point_2d":{"lon":5.116238244122063,"lat":47.30793921615864}}},{"type":"Feature","geometry":{"coordinates":[5.048308733671666,47.33036459014563],"type":"Point"},"properties":{"objectid":655,"communes":"Dijon","nom":"Marne","code_insee":"21231","lignes":"L6","code_mkg":"08_151_b","terminus_1":null,"geo_point_2d":{"lon":5.048308733671666,"lat":47.33036459014563}}},{"type":"Feature","geometry":{"coordinates":[5.0486722173286935,47.35211256869042],"type":"Point"},"properties":{"objectid":665,"communes":"Dijon","nom":"Giono","code_insee":"21231","lignes":"BC71","code_mkg":"08_113_a","terminus_1":null,"geo_point_2d":{"lon":5.0486722173286935,"lat":47.35211256869042}}},{"type":"Feature","geometry":{"coordinates":[5.000515575646059,47.268868625473786],"type":"Point"},"properties":{"objectid":666,"communes":"Marsannay-la-C\u00f4te","nom":"Perrigny le Rocher","code_insee":"21390","lignes":"LR113","code_mkg":null,"terminus_1":null,"geo_point_2d":{"lon":5.000515575646059,"lat":47.268868625473786}}},{"type":"Feature","geometry":{"coordinates":[5.062894997929931,47.284520746669],"type":"Point"},"properties":{"objectid":667,"communes":"Longvic","nom":"Longvic Mairie","code_insee":"21355","lignes":"L6; B18; R31; R32; R38; BC61; BC62; BC63; BC68","code_mkg":"12_019_b","terminus_1":null,"geo_point_2d":{"lon":5.062894997929931,"lat":47.284520746669}}},{"type":"Feature","geometry":{"coordinates":[5.051439762575118,47.338018000195746],"type":"Point"},"properties":{"objectid":671,"communes":"Dijon","nom":"Theuriet","code_insee":"21231","lignes":"Corol","code_mkg":"08_238_c","terminus_1":null,"geo_point_2d":{"lon":5.051439762575118,"lat":47.338018000195746}}},{"type":"Feature","geometry":{"coordinates":[5.06269236751218,47.34478788906019],"type":"Point"},"properties":{"objectid":674,"communes":"Dijon","nom":"Dolet","code_insee":"21231","lignes":"F40","code_mkg":"08_092_b","terminus_1":null,"geo_point_2d":{"lon":5.06269236751218,"lat":47.34478788906019}}},{"type":"Feature","geometry":{"coordinates":[5.065557013914231,47.34445527088372],"type":"Point"},"properties":{"objectid":675,"communes":"Dijon","nom":"Chaput","code_insee":"21231","lignes":"F40","code_mkg":"08_054_a","terminus_1":null,"geo_point_2d":{"lon":5.065557013914231,"lat":47.34445527088372}}},{"type":"Feature","geometry":{"coordinates":[5.10281419725396,47.290011999755855],"type":"Point"},"properties":{"objectid":678,"communes":"Sennecey-l\u00e8s-Dijon","nom":"Mimosas","code_insee":"21605","lignes":"B16; BC69","code_mkg":"21_005_a","terminus_1":null,"geo_point_2d":{"lon":5.10281419725396,"lat":47.290011999755855}}},{"type":"Feature","geometry":{"coordinates":[5.103048732609318,47.297982784127015],"type":"Point"},"properties":{"objectid":684,"communes":"Sennecey-l\u00e8s-Dijon","nom":"Bassin","code_insee":"21605","lignes":"B16; BC69","code_mkg":"21_001_a","terminus_1":null,"geo_point_2d":{"lon":5.103048732609318,"lat":47.297982784127015}}},{"type":"Feature","geometry":{"coordinates":[5.074342885998342,47.348585238168674],"type":"Point"},"properties":{"objectid":685,"communes":"Dijon","nom":"Malines","code_insee":"21231","lignes":"F40","code_mkg":"08_147_b","terminus_1":null,"geo_point_2d":{"lon":5.074342885998342,"lat":47.348585238168674}}},{"type":"Feature","geometry":{"coordinates":[5.027702999590613,47.31565299984853],"type":"Point"},"properties":{"objectid":689,"communes":"Dijon","nom":"Rolin","code_insee":"21231","lignes":"Corol","code_mkg":"08_204_b","terminus_1":null,"geo_point_2d":{"lon":5.027702999590613,"lat":47.31565299984853}}},{"type":"Feature","geometry":{"coordinates":[5.084568000192712,47.331443999682556],"type":"Point"},"properties":{"objectid":695,"communes":"Saint-Apollinaire","nom":"Jacquat","code_insee":"21540","lignes":"F43; C36; C37; C38; L8","code_mkg":"20_010_a","terminus_1":null,"geo_point_2d":{"lon":5.084568000192712,"lat":47.331443999682556}}},{"type":"Feature","geometry":{"coordinates":[4.99998199980649,47.3508410004093],"type":"Point"},"properties":{"objectid":709,"communes":"Daix","nom":"Bernard","code_insee":"21223","lignes":"R30; BC65","code_mkg":"07_002_a","terminus_1":null,"geo_point_2d":{"lon":4.99998199980649,"lat":47.3508410004093}}},{"type":"Feature","geometry":{"coordinates":[4.992573636557768,47.35466792836679],"type":"Point"},"properties":{"objectid":713,"communes":"Daix","nom":"Changey","code_insee":"21223","lignes":"R30; BC65","code_mkg":"07_005_a","terminus_1":null,"geo_point_2d":{"lon":4.992573636557768,"lat":47.35466792836679}}},{"type":"Feature","geometry":{"coordinates":[5.133405132177596,47.295195817485464],"type":"Point"},"properties":{"objectid":716,"communes":"Chevigny-Saint-Sauveur","nom":"Pasteur","code_insee":"21171","lignes":"L7; Flex_Night","code_mkg":"05_020_b","terminus_1":null,"geo_point_2d":{"lon":5.133405132177596,"lat":47.295195817485464}}},{"type":"Feature","geometry":{"coordinates":[5.069336408154785,47.32226094258215],"type":"Point"},"properties":{"objectid":718,"communes":"Dijon","nom":"Urgences CHU","code_insee":"21231","lignes":"Corol; L8","code_mkg":"08_246_b","terminus_1":null,"geo_point_2d":{"lon":5.069336408154785,"lat":47.32226094258215}}},{"type":"Feature","geometry":{"coordinates":[5.001555148995644,47.350014558502274],"type":"Point"},"properties":{"objectid":724,"communes":"Daix","nom":"Rue de Dijon","code_insee":"21223","lignes":"R30; BC65","code_mkg":"07_009_b","terminus_1":null,"geo_point_2d":{"lon":5.001555148995644,"lat":47.350014558502274}}},{"type":"Feature","geometry":{"coordinates":[5.099712261370711,47.290046856988674],"type":"Point"},"properties":{"objectid":727,"communes":"Sennecey-l\u00e8s-Dijon","nom":"Pr\u00e9 aux Moines","code_insee":"21605","lignes":"B16; BC67; BC69","code_mkg":"21_007_b","terminus_1":null,"geo_point_2d":{"lon":5.099712261370711,"lat":47.290046856988674}}},{"type":"Feature","geometry":{"coordinates":[5.0160460468181665,47.310086000089875],"type":"Point"},"properties":{"objectid":730,"communes":"Dijon","nom":"Fyot","code_insee":"21231","lignes":"L4","code_mkg":"08_109_d","terminus_1":null,"geo_point_2d":{"lon":5.0160460468181665,"lat":47.310086000089875}}},{"type":"Feature","geometry":{"coordinates":[5.0053749085498245,47.26713699977191],"type":"Point"},"properties":{"objectid":731,"communes":"Perrigny-l\u00e8s-Dijon","nom":"Tourelle","code_insee":"21481","lignes":"B15","code_mkg":"17_006_b","terminus_1":null,"geo_point_2d":{"lon":5.0053749085498245,"lat":47.26713699977191}}},{"type":"Feature","geometry":{"coordinates":[5.006193595235577,47.27272715662605],"type":"Point"},"properties":{"objectid":733,"communes":"Perrigny-l\u00e8s-Dijon","nom":"Vignery","code_insee":"21481","lignes":"B15","code_mkg":"17_007_b","terminus_1":null,"geo_point_2d":{"lon":5.006193595235577,"lat":47.27272715662605}}},{"type":"Feature","geometry":{"coordinates":[5.00766313537668,47.26977520266229],"type":"Point"},"properties":{"objectid":734,"communes":"Perrigny-l\u00e8s-Dijon","nom":"Terreau du Moulin","code_insee":"21481","lignes":"B15","code_mkg":"17_005_b","terminus_1":null,"geo_point_2d":{"lon":5.00766313537668,"lat":47.26977520266229}}},{"type":"Feature","geometry":{"coordinates":[5.037366765932925,47.29345737520642],"type":"Point"},"properties":{"objectid":738,"communes":"Longvic","nom":"Bertin","code_insee":"21355","lignes":"B18","code_mkg":"12_003_b","terminus_1":null,"geo_point_2d":{"lon":5.037366765932925,"lat":47.29345737520642}}},{"type":"Feature","geometry":{"coordinates":[5.0465026356459335,47.30756380878873],"type":"Point"},"properties":{"objectid":739,"communes":"Dijon","nom":"Piscine Carrousel","code_insee":"21231","lignes":"L6","code_mkg":"08_184_a","terminus_1":null,"geo_point_2d":{"lon":5.0465026356459335,"lat":47.30756380878873}}},{"type":"Feature","geometry":{"coordinates":[4.988029295657358,47.368482200312215],"type":"Point"},"properties":{"objectid":746,"communes":"Hauteville-l\u00e8s-Dijon","nom":"La Paisse","code_insee":"21315","lignes":"R30; BC65","code_mkg":"11_004_b","terminus_1":null,"geo_point_2d":{"lon":4.988029295657358,"lat":47.368482200312215}}},{"type":"Feature","geometry":{"coordinates":[5.062740802799859,47.2791279996709],"type":"Point"},"properties":{"objectid":751,"communes":"Longvic","nom":"Ecluse","code_insee":"21355","lignes":"R31; R32; BC62; BC68","code_mkg":"12_011_a","terminus_1":null,"geo_point_2d":{"lon":5.062740802799859,"lat":47.2791279996709}}},{"type":"Feature","geometry":{"coordinates":[5.112352322430028,47.24320598343993],"type":"Point"},"properties":{"objectid":755,"communes":"Breteni\u00e8re","nom":"La Garande","code_insee":"21106","lignes":"R31; BC63; BC68","code_mkg":"03_003_b","terminus_1":null,"geo_point_2d":{"lon":5.112352322430028,"lat":47.24320598343993}}},{"type":"Feature","geometry":{"coordinates":[4.996044601630028,47.30320879153634],"type":"Point"},"properties":{"objectid":758,"communes":"Dijon","nom":"Hortensias","code_insee":"21231","lignes":"R34","code_mkg":"08_122_a","terminus_1":null,"geo_point_2d":{"lon":4.996044601630028,"lat":47.30320879153634}}},{"type":"Feature","geometry":{"coordinates":[5.013059139811371,47.288172000138765],"type":"Point"},"properties":{"objectid":759,"communes":"Chen\u00f4ve","nom":"Route de Beaune","code_insee":"21166","lignes":"B14; B15; LR113","code_mkg":"04_015_a","terminus_1":null,"geo_point_2d":{"lon":5.013059139811371,"lat":47.288172000138765}}},{"type":"Feature","geometry":{"coordinates":[5.017806242916227,47.29530874726438],"type":"Point"},"properties":{"objectid":761,"communes":"Chen\u00f4ve","nom":"Ferry","code_insee":"21166","lignes":"B14;B15","code_mkg":"04_008_a","terminus_1":null,"geo_point_2d":{"lon":5.017806242916227,"lat":47.29530874726438}}},{"type":"Feature","geometry":{"coordinates":[5.001829146814886,47.30963300044525],"type":"Point"},"properties":{"objectid":763,"communes":"Dijon","nom":"Calmette","code_insee":"21231","lignes":"R34","code_mkg":"08_043_a","terminus_1":null,"geo_point_2d":{"lon":5.001829146814886,"lat":47.30963300044525}}},{"type":"Feature","geometry":{"coordinates":[4.995626271016786,47.30612234021791],"type":"Point"},"properties":{"objectid":764,"communes":"Dijon","nom":"Bordet","code_insee":"21231","lignes":"R34","code_mkg":"08_032_a","terminus_1":null,"geo_point_2d":{"lon":4.995626271016786,"lat":47.30612234021791}}},{"type":"Feature","geometry":{"coordinates":[5.00423908209456,47.311186000001776],"type":"Point"},"properties":{"objectid":769,"communes":"Dijon","nom":"Patte d'Oie","code_insee":"21231","lignes":"R34","code_mkg":"08_174_d","terminus_1":null,"geo_point_2d":{"lon":5.00423908209456,"lat":47.311186000001776}}},{"type":"Feature","geometry":{"coordinates":[5.037262943707128,47.3071018241043],"type":"Point"},"properties":{"objectid":773,"communes":"Dijon","nom":"Blanchisseries","code_insee":"21231","lignes":"B12","code_mkg":"08_030_a","terminus_1":null,"geo_point_2d":{"lon":5.037262943707128,"lat":47.3071018241043}}},{"type":"Feature","geometry":{"coordinates":[5.037542172180545,47.307734864880096],"type":"Point"},"properties":{"objectid":774,"communes":"Dijon","nom":"Blanchisseries","code_insee":"21231","lignes":"B12","code_mkg":"08_030_b","terminus_1":null,"geo_point_2d":{"lon":5.037542172180545,"lat":47.307734864880096}}},{"type":"Feature","geometry":{"coordinates":[5.018498552591398,47.33230541303674],"type":"Point"},"properties":{"objectid":775,"communes":"Dijon","nom":"St-Mesmin","code_insee":"21231","lignes":"L5; B13 ;C47; C48; C49","code_mkg":"08_230_b","terminus_1":null,"geo_point_2d":{"lon":5.018498552591398,"lat":47.33230541303674}}},{"type":"Feature","geometry":{"coordinates":[4.997625828335906,47.31132199960839],"type":"Point"},"properties":{"objectid":777,"communes":"Dijon","nom":"Echaillons","code_insee":"21231","lignes":"R35","code_mkg":"08_098_a","terminus_1":null,"geo_point_2d":{"lon":4.997625828335906,"lat":47.31132199960839}}},{"type":"Feature","geometry":{"coordinates":[5.006623281187983,47.27470186400417],"type":"Point"},"properties":{"objectid":779,"communes":"Marsannay-la-C\u00f4te","nom":"CAT-ESAT","code_insee":"21390","lignes":"B15","code_mkg":"14_003_a","terminus_1":null,"geo_point_2d":{"lon":5.006623281187983,"lat":47.27470186400417}}},{"type":"Feature","geometry":{"coordinates":[5.004020213770561,47.27184000031273],"type":"Point"},"properties":{"objectid":780,"communes":"Perrigny-l\u00e8s-Dijon","nom":"Bolotte","code_insee":"21481","lignes":"B15","code_mkg":"17_001_a","terminus_1":null,"geo_point_2d":{"lon":5.004020213770561,"lat":47.27184000031273}}},{"type":"Feature","geometry":{"coordinates":[5.009338856153529,47.27335999999132],"type":"Point"},"properties":{"objectid":782,"communes":"Perrigny-l\u00e8s-Dijon","nom":"Lapostolet","code_insee":"21481","lignes":"B15","code_mkg":"17_002_a","terminus_1":null,"geo_point_2d":{"lon":5.009338856153529,"lat":47.27335999999132}}},{"type":"Feature","geometry":{"coordinates":[4.994208812112494,47.310548000228515],"type":"Point"},"properties":{"objectid":788,"communes":"Dijon","nom":"Montagne de Larrey","code_insee":"21231","lignes":"R35","code_mkg":"08_156_a","terminus_1":"Terminus","geo_point_2d":{"lon":4.994208812112494,"lat":47.310548000228515}}},{"type":"Feature","geometry":{"coordinates":[5.00553178790244,47.267197000312514],"type":"Point"},"properties":{"objectid":789,"communes":"Perrigny-l\u00e8s-Dijon","nom":"Tourelle","code_insee":"21481","lignes":"B15","code_mkg":"17_006_a","terminus_1":null,"geo_point_2d":{"lon":5.00553178790244,"lat":47.267197000312514}}},{"type":"Feature","geometry":{"coordinates":[5.024658456558122,47.36731549374271],"type":"Point"},"properties":{"objectid":791,"communes":"Ahuy","nom":"AHUY","code_insee":"21003","lignes":"B10","code_mkg":"01_001_b","terminus_1":"Terminus","geo_point_2d":{"lon":5.024658456558122,"lat":47.36731549374271}}},{"type":"Feature","geometry":{"coordinates":[5.0379090309009635,47.352695999964695],"type":"Point"},"properties":{"objectid":794,"communes":"Dijon","nom":"Touzet du Vigier","code_insee":"21231","lignes":"B10; BC71; L9","code_mkg":"08_243_b","terminus_1":null,"geo_point_2d":{"lon":5.0379090309009635,"lat":47.352695999964695}}},{"type":"Feature","geometry":{"coordinates":[5.069858137475858,47.32967556951035],"type":"Point"},"properties":{"objectid":796,"communes":"Dijon","nom":"Billardon","code_insee":"21231","lignes":"B19; F43","code_mkg":"08_028_b","terminus_1":null,"geo_point_2d":{"lon":5.069858137475858,"lat":47.32967556951035}}},{"type":"Feature","geometry":{"coordinates":[5.065858451586895,47.322203061174136],"type":"Point"},"properties":{"objectid":801,"communes":"Dijon","nom":"Parc des Sports","code_insee":"21231","lignes":"Corol; C36; C37; C38; C60; L8","code_mkg":"08_169_d","terminus_1":null,"geo_point_2d":{"lon":5.065858451586895,"lat":47.322203061174136}}},{"type":"Feature","geometry":{"coordinates":[5.118896744563686,47.27620755056757],"type":"Point"},"properties":{"objectid":803,"communes":"Neuilly-Crimolois","nom":"La Combe","code_insee":"21452","lignes":"B16; BC67; BC69","code_mkg":"06_002_b","terminus_1":null,"geo_point_2d":{"lon":5.118896744563686,"lat":47.27620755056757}}},{"type":"Feature","geometry":{"coordinates":[5.032123444860609,47.31781861030404],"type":"Point"},"properties":{"objectid":809,"communes":"Dijon","nom":"Monge Cit\u00e9 de la gastronomie","code_insee":"21231","lignes":"L9","code_mkg":"08_155_d","terminus_1":null,"geo_point_2d":{"lon":5.032123444860609,"lat":47.31781861030404}}},{"type":"Feature","geometry":{"coordinates":[5.026714269696295,47.3175169795873],"type":"Point"},"properties":{"objectid":810,"communes":"Dijon","nom":"Faubourg Raines","code_insee":"21231","lignes":"L4; R33; R34; R35","code_mkg":"08_103_b","terminus_1":null,"geo_point_2d":{"lon":5.026714269696295,"lat":47.3175169795873}}},{"type":"Feature","geometry":{"coordinates":[5.0204409994602965,47.28318987108835],"type":"Point"},"properties":{"objectid":813,"communes":"Chen\u00f4ve","nom":"CHEN\u00d4VE C. Cial","code_insee":"21166","lignes":"F42","code_mkg":"04_003_a","terminus_1":"Terminus","geo_point_2d":{"lon":5.0204409994602965,"lat":47.28318987108835}}},{"type":"Feature","geometry":{"coordinates":[5.008221149407683,47.28466399955184],"type":"Point"},"properties":{"objectid":814,"communes":"Chen\u00f4ve","nom":"Grands Crus","code_insee":"21166","lignes":"L4","code_mkg":"04_010_b","terminus_1":null,"geo_point_2d":{"lon":5.008221149407683,"lat":47.28466399955184}}},{"type":"Feature","geometry":{"coordinates":[5.005760618367102,47.28533077529332],"type":"Point"},"properties":{"objectid":815,"communes":"Chen\u00f4ve","nom":"Bicentenaire","code_insee":"21166","lignes":"L4","code_mkg":"04_001_b","terminus_1":null,"geo_point_2d":{"lon":5.005760618367102,"lat":47.28533077529332}}},{"type":"Feature","geometry":{"coordinates":[5.008086473128536,47.30090568545646],"type":"Point"},"properties":{"objectid":817,"communes":"Chen\u00f4ve","nom":"Croix des Valendons","code_insee":"21166","lignes":"L4","code_mkg":"04_006_b","terminus_1":null,"geo_point_2d":{"lon":5.008086473128536,"lat":47.30090568545646}}},{"type":"Feature","geometry":{"coordinates":[5.0057017946575915,47.318580427584564],"type":"Point"},"properties":{"objectid":821,"communes":"Dijon","nom":"Av. du Lac","code_insee":"21231","lignes":"L3; Corol; R39","code_mkg":"08_014_b","terminus_1":null,"geo_point_2d":{"lon":5.0057017946575915,"lat":47.318580427584564}}},{"type":"Feature","geometry":{"coordinates":[5.065285093416022,47.31796389613454],"type":"Point"},"properties":{"objectid":822,"communes":"Dijon","nom":"Jeanne d'Arc","code_insee":"21231","lignes":"L3; Corol","code_mkg":"08_127_b","terminus_1":null,"geo_point_2d":{"lon":5.065285093416022,"lat":47.31796389613454}}},{"type":"Feature","geometry":{"coordinates":[5.0273878276784405,47.32225023328179],"type":"Point"},"properties":{"objectid":824,"communes":"Dijon","nom":"SNCF Vincenot","code_insee":"21231","lignes":"L3; B13","code_mkg":"08_219_a","terminus_1":null,"geo_point_2d":{"lon":5.0273878276784405,"lat":47.32225023328179}}},{"type":"Feature","geometry":{"coordinates":[5.058392764955943,47.317458523225305],"type":"Point"},"properties":{"objectid":825,"communes":"Dijon","nom":"Creux d'Enfer","code_insee":"21231","lignes":"L3","code_mkg":"08_078_a","terminus_1":null,"geo_point_2d":{"lon":5.058392764955943,"lat":47.317458523225305}}},{"type":"Feature","geometry":{"coordinates":[5.064011681503501,47.317081483757775],"type":"Point"},"properties":{"objectid":827,"communes":"Dijon","nom":"Boulanger","code_insee":"21231","lignes":"L3","code_mkg":"08_035_a","terminus_1":null,"geo_point_2d":{"lon":5.064011681503501,"lat":47.317081483757775}}},{"type":"Feature","geometry":{"coordinates":[5.005973028807408,47.299147099461386],"type":"Point"},"properties":{"objectid":830,"communes":"Chen\u00f4ve","nom":"Renan","code_insee":"21166","lignes":"L4","code_mkg":"04_014_b","terminus_1":null,"geo_point_2d":{"lon":5.005973028807408,"lat":47.299147099461386}}},{"type":"Feature","geometry":{"coordinates":[4.998767933274177,47.36694930641816],"type":"Point"},"properties":{"objectid":836,"communes":"Hauteville-l\u00e8s-Dijon","nom":"Chambertin","code_insee":"21315","lignes":"R30; BC65","code_mkg":"11_001_b","terminus_1":null,"geo_point_2d":{"lon":4.998767933274177,"lat":47.36694930641816}}},{"type":"Feature","geometry":{"coordinates":[5.038951886728635,47.320006354455444],"type":"Point"},"properties":{"objectid":844,"communes":"Dijon","nom":"Roussin","code_insee":"21231","lignes":"City","code_mkg":"08_208_a","terminus_1":null,"geo_point_2d":{"lon":5.038951886728635,"lat":47.320006354455444}}},{"type":"Feature","geometry":{"coordinates":[5.005101138356377,47.29811575460561],"type":"Point"},"properties":{"objectid":847,"communes":"Chen\u00f4ve","nom":"Renan","code_insee":"21166","lignes":"L4","code_mkg":"04_014_a","terminus_1":null,"geo_point_2d":{"lon":5.005101138356377,"lat":47.29811575460561}}},{"type":"Feature","geometry":{"coordinates":[5.012633801057531,47.304963999733786],"type":"Point"},"properties":{"objectid":848,"communes":"Dijon","nom":"Abb\u00e9 Chanlon","code_insee":"21231","lignes":"L4","code_mkg":"08_004_b","terminus_1":null,"geo_point_2d":{"lon":5.012633801057531,"lat":47.304963999733786}}},{"type":"Feature","geometry":{"coordinates":[5.028452994008199,47.34963995203793],"type":"Point"},"properties":{"objectid":852,"communes":"Fontaine-l\u00e8s-Dijon","nom":"Ratel","code_insee":"21278","lignes":"L9","code_mkg":"10_025_a","terminus_1":null,"geo_point_2d":{"lon":5.028452994008199,"lat":47.34963995203793}}},{"type":"Feature","geometry":{"coordinates":[5.012536999798497,47.32812099996867],"type":"Point"},"properties":{"objectid":854,"communes":"Talant","nom":"Marmuzots","code_insee":"21617","lignes":"B10","code_mkg":"22_019_b","terminus_1":null,"geo_point_2d":{"lon":5.012536999798497,"lat":47.32812099996867}}},{"type":"Feature","geometry":{"coordinates":[5.039754619335773,47.33597137617238],"type":"Point"},"properties":{"objectid":856,"communes":"Dijon","nom":"Mazi\u00e8res","code_insee":"21231","lignes":"B10","code_mkg":"08_268_a","terminus_1":null,"geo_point_2d":{"lon":5.039754619335773,"lat":47.33597137617238}}},{"type":"Feature","geometry":{"coordinates":[5.085469503380238,47.32788800333685],"type":"Point"},"properties":{"objectid":857,"communes":"Saint-Apollinaire","nom":"ST-APOLLINAIRE Pr\u00e9 Thomas","code_insee":"21540","lignes":"B19; BC74","code_mkg":"20_023_a","terminus_1":"Terminus","geo_point_2d":{"lon":5.085469503380238,"lat":47.32788800333685}}},{"type":"Feature","geometry":{"coordinates":[5.028252246640689,47.34966411732169],"type":"Point"},"properties":{"objectid":858,"communes":"Fontaine-l\u00e8s-Dijon","nom":"Ratel","code_insee":"21278","lignes":"L9","code_mkg":"10_025_b","terminus_1":null,"geo_point_2d":{"lon":5.028252246640689,"lat":47.34966411732169}}},{"type":"Feature","geometry":{"coordinates":[5.039639153173768,47.338050098567464],"type":"Point"},"properties":{"objectid":860,"communes":"Dijon","nom":"Fauconnet","code_insee":"21231","lignes":"B10","code_mkg":"10_031_a","terminus_1":null,"geo_point_2d":{"lon":5.039639153173768,"lat":47.338050098567464}}},{"type":"Feature","geometry":{"coordinates":[5.030233860532896,47.352149000185406],"type":"Point"},"properties":{"objectid":862,"communes":"Fontaine-l\u00e8s-Dijon","nom":"Belfontaine","code_insee":"21278","lignes":"L9","code_mkg":"10_003_b","terminus_1":null,"geo_point_2d":{"lon":5.030233860532896,"lat":47.352149000185406}}},{"type":"Feature","geometry":{"coordinates":[5.017103999647261,47.33975099965297],"type":"Point"},"properties":{"objectid":863,"communes":"Fontaine-l\u00e8s-Dijon","nom":"Combottes","code_insee":"21278","lignes":"B13","code_mkg":"10_005_a","terminus_1":null,"geo_point_2d":{"lon":5.017103999647261,"lat":47.33975099965297}}},{"type":"Feature","geometry":{"coordinates":[5.090476989744457,47.333019000097316],"type":"Point"},"properties":{"objectid":869,"communes":"Saint-Apollinaire","nom":"Opaline","code_insee":"21540","lignes":"B19; L8","code_mkg":"20_018_b","terminus_1":null,"geo_point_2d":{"lon":5.090476989744457,"lat":47.333019000097316}}},{"type":"Feature","geometry":{"coordinates":[5.103772281449017,47.31186881610586],"type":"Point"},"properties":{"objectid":871,"communes":"Quetigny","nom":"Grand March\u00e9","code_insee":"21515","lignes":"F41; R36; R37; DP; Flex_Night","code_mkg":"19_010_c","terminus_1":"Terminus","geo_point_2d":{"lon":5.103772281449017,"lat":47.31186881610586}}},{"type":"Feature","geometry":{"coordinates":[5.061287879705533,47.32197800013311],"type":"Point"},"properties":{"objectid":873,"communes":"Dijon","nom":"Doumer","code_insee":"21231","lignes":"L8","code_mkg":"08_093_a","terminus_1":null,"geo_point_2d":{"lon":5.061287879705533,"lat":47.32197800013311}}},{"type":"Feature","geometry":{"coordinates":[5.107496998740303,47.30995594397311],"type":"Point"},"properties":{"objectid":875,"communes":"Quetigny","nom":"Quetignerot","code_insee":"21515","lignes":"L7; F41; R36; R37","code_mkg":"19_015_a","terminus_1":null,"geo_point_2d":{"lon":5.107496998740303,"lat":47.30995594397311}}},{"type":"Feature","geometry":{"coordinates":[5.11993687180118,47.30440019429969],"type":"Point"},"properties":{"objectid":876,"communes":"Chevigny-Saint-Sauveur","nom":"Visitation","code_insee":"21171","lignes":"L7; F41; R36; R37; Flex_Night","code_mkg":"05_023_a","terminus_1":null,"geo_point_2d":{"lon":5.11993687180118,"lat":47.30440019429969}}},{"type":"Feature","geometry":{"coordinates":[5.009004199655291,47.293703698827294],"type":"Point"},"properties":{"objectid":880,"communes":"Chen\u00f4ve","nom":"Thibaut","code_insee":"21166","lignes":"L4; F42","code_mkg":"04_018_b","terminus_1":null,"geo_point_2d":{"lon":5.009004199655291,"lat":47.293703698827294}}},{"type":"Feature","geometry":{"coordinates":[5.024354294867059,47.295567095181745],"type":"Point"},"properties":{"objectid":882,"communes":"Chen\u00f4ve","nom":"Les Ateliers","code_insee":"21166","lignes":"F42; F45","code_mkg":"04_026_a","terminus_1":"Terminus","geo_point_2d":{"lon":5.024354294867059,"lat":47.295567095181745}}},{"type":"Feature","geometry":{"coordinates":[5.060381198749691,47.27532388872097],"type":"Point"},"properties":{"objectid":887,"communes":"Longvic","nom":"Longvic ZI","code_insee":"21355","lignes":"LR111; LR112","code_mkg":null,"terminus_1":null,"geo_point_2d":{"lon":5.060381198749691,"lat":47.27532388872097}}},{"type":"Feature","geometry":{"coordinates":[5.0611109730013535,47.33490600005047],"type":"Point"},"properties":{"objectid":890,"communes":"Dijon","nom":"Boutaric","code_insee":"21231","lignes":"Corol","code_mkg":"08_038_b","terminus_1":null,"geo_point_2d":{"lon":5.0611109730013535,"lat":47.33490600005047}}},{"type":"Feature","geometry":{"coordinates":[5.062453426783747,47.31284584856064],"type":"Point"},"properties":{"objectid":894,"communes":"Dijon","nom":"Mansart","code_insee":"21231","lignes":"Corol","code_mkg":"08_101_c","terminus_1":null,"geo_point_2d":{"lon":5.062453426783747,"lat":47.31284584856064}}},{"type":"Feature","geometry":{"coordinates":[5.120827197465329,47.31481499959448],"type":"Point"},"properties":{"objectid":896,"communes":"Quetigny","nom":"Croix St-Martin","code_insee":"21515","lignes":"B16; BC73","code_mkg":"19_007_b","terminus_1":null,"geo_point_2d":{"lon":5.120827197465329,"lat":47.31481499959448}}},{"type":"Feature","geometry":{"coordinates":[5.115653038385819,47.31236300000692],"type":"Point"},"properties":{"objectid":897,"communes":"Quetigny","nom":"Quetigny Mairie","code_insee":"21515","lignes":"B16; BC73","code_mkg":"19_019_b","terminus_1":null,"geo_point_2d":{"lon":5.115653038385819,"lat":47.31236300000692}}},{"type":"Feature","geometry":{"coordinates":[4.990975927408298,47.342077325789425],"type":"Point"},"properties":{"objectid":900,"communes":"Talant","nom":"Brossolette","code_insee":"21617","lignes":"B10","code_mkg":"22_003_b","terminus_1":null,"geo_point_2d":{"lon":4.990975927408298,"lat":47.342077325789425}}},{"type":"Feature","geometry":{"coordinates":[5.009378999480326,47.3347890003584],"type":"Point"},"properties":{"objectid":904,"communes":"Talant","nom":"Fassoles","code_insee":"21617","lignes":"B10","code_mkg":"22_010_b","terminus_1":null,"geo_point_2d":{"lon":5.009378999480326,"lat":47.3347890003584}}},{"type":"Feature","geometry":{"coordinates":[5.102844238590082,47.29792000007265],"type":"Point"},"properties":{"objectid":909,"communes":"Sennecey-l\u00e8s-Dijon","nom":"Bassin","code_insee":"21605","lignes":"B16; BC69","code_mkg":"21_001_b","terminus_1":null,"geo_point_2d":{"lon":5.102844238590082,"lat":47.29792000007265}}},{"type":"Feature","geometry":{"coordinates":[5.010391999553831,47.33271599962028],"type":"Point"},"properties":{"objectid":911,"communes":"Talant","nom":"Lib\u00e9ration","code_insee":"21617","lignes":"B10","code_mkg":"22_016_b","terminus_1":null,"geo_point_2d":{"lon":5.010391999553831,"lat":47.33271599962028}}},{"type":"Feature","geometry":{"coordinates":[5.022965770506117,47.32352536537891],"type":"Point"},"properties":{"objectid":913,"communes":"Dijon","nom":"Bagatelle","code_insee":"21231","lignes":"B10; B12","code_mkg":"08_016_b","terminus_1":null,"geo_point_2d":{"lon":5.022965770506117,"lat":47.32352536537891}}},{"type":"Feature","geometry":{"coordinates":[5.039656000160189,47.328937000235854],"type":"Point"},"properties":{"objectid":914,"communes":"Dijon","nom":"Barbe","code_insee":"21231","lignes":"B10","code_mkg":"08_019_b","terminus_1":null,"geo_point_2d":{"lon":5.039656000160189,"lat":47.328937000235854}}},{"type":"Feature","geometry":{"coordinates":[5.038365841300245,47.33117200036572],"type":"Point"},"properties":{"objectid":915,"communes":"Dijon","nom":"Beaune","code_insee":"21231","lignes":"B10","code_mkg":"08_023_b","terminus_1":null,"geo_point_2d":{"lon":5.038365841300245,"lat":47.33117200036572}}},{"type":"Feature","geometry":{"coordinates":[5.0108234233930125,47.34813720088632],"type":"Point"},"properties":{"objectid":916,"communes":"Fontaine-l\u00e8s-Dijon","nom":"FONTAINE Village","code_insee":"21278","lignes":"B13","code_mkg":"10_011_a","terminus_1":"Terminus","geo_point_2d":{"lon":5.0108234233930125,"lat":47.34813720088632}}},{"type":"Feature","geometry":{"coordinates":[5.027864468638222,47.32447254818881],"type":"Point"},"properties":{"objectid":922,"communes":"Dijon","nom":"SNCF Brifaut","code_insee":"21231","lignes":"B10; B12","code_mkg":"08_217_a","terminus_1":null,"geo_point_2d":{"lon":5.027864468638222,"lat":47.32447254818881}}},{"type":"Feature","geometry":{"coordinates":[5.0147590643187865,47.325440999739065],"type":"Point"},"properties":{"objectid":925,"communes":"Dijon","nom":"St-Fran\u00e7ois","code_insee":"21231","lignes":"B10","code_mkg":"08_228_a","terminus_1":null,"geo_point_2d":{"lon":5.0147590643187865,"lat":47.325440999739065}}},{"type":"Feature","geometry":{"coordinates":[5.0267395923995615,47.35571013472717],"type":"Point"},"properties":{"objectid":926,"communes":"Fontaine-l\u00e8s-Dijon","nom":"Pr\u00e9s Potets","code_insee":"21278","lignes":"L9","code_mkg":"10_023_b","terminus_1":null,"geo_point_2d":{"lon":5.0267395923995615,"lat":47.35571013472717}}},{"type":"Feature","geometry":{"coordinates":[5.106179060550152,47.28807442507361],"type":"Point"},"properties":{"objectid":927,"communes":"Sennecey-l\u00e8s-Dijon","nom":"Le Fort","code_insee":"21605","lignes":"B16; BC69","code_mkg":"21_004_b","terminus_1":null,"geo_point_2d":{"lon":5.106179060550152,"lat":47.28807442507361}}},{"type":"Feature","geometry":{"coordinates":[5.109303951209762,47.28942900026218],"type":"Point"},"properties":{"objectid":930,"communes":"Sennecey-l\u00e8s-Dijon","nom":"Grande L\u00e9gie","code_insee":"21605","lignes":"B16; BC69","code_mkg":"21_003_b","terminus_1":null,"geo_point_2d":{"lon":5.109303951209762,"lat":47.28942900026218}}},{"type":"Feature","geometry":{"coordinates":[5.0420441412909724,47.31529449521606],"type":"Point"},"properties":{"objectid":935,"communes":"Dijon","nom":"Wilson Dumont","code_insee":"21231","lignes":"L5; B12; PL","code_mkg":"08_253_a","terminus_1":null,"geo_point_2d":{"lon":5.0420441412909724,"lat":47.31529449521606}}},{"type":"Feature","geometry":{"coordinates":[5.012825965968122,47.30494599962607],"type":"Point"},"properties":{"objectid":936,"communes":"Dijon","nom":"Abb\u00e9 Chanlon","code_insee":"21231","lignes":"L4","code_mkg":"08_004_a","terminus_1":null,"geo_point_2d":{"lon":5.012825965968122,"lat":47.30494599962607}}},{"type":"Feature","geometry":{"coordinates":[5.037033080518033,47.32071499989569],"type":"Point"},"properties":{"objectid":937,"communes":"Dijon","nom":"Bossuet","code_insee":"21231","lignes":"L9","code_mkg":"08_034_a","terminus_1":null,"geo_point_2d":{"lon":5.037033080518033,"lat":47.32071499989569}}},{"type":"Feature","geometry":{"coordinates":[5.021021411694636,47.30026940269569],"type":"Point"},"properties":{"objectid":941,"communes":"Chen\u00f4ve","nom":"Carraz","code_insee":"21166","lignes":"F42; F45","code_mkg":"04_024_a","terminus_1":null,"geo_point_2d":{"lon":5.021021411694636,"lat":47.30026940269569}}},{"type":"Feature","geometry":{"coordinates":[4.992069587958402,47.27516091564363],"type":"Point"},"properties":{"objectid":946,"communes":"Marsannay-la-C\u00f4te","nom":"Saint-Vincent","code_insee":"21390","lignes":"LR114","code_mkg":null,"terminus_1":null,"geo_point_2d":{"lon":4.992069587958402,"lat":47.27516091564363}}},{"type":"Feature","geometry":{"coordinates":[4.916349098338804,47.27839560037864],"type":"Point"},"properties":{"objectid":949,"communes":"Flavignerot","nom":"Flavignerot","code_insee":"21270","lignes":"R33; BC75; DP","code_mkg":"24_001_a","terminus_1":"Terminus","geo_point_2d":{"lon":4.916349098338804,"lat":47.27839560037864}}},{"type":"Feature","geometry":{"coordinates":[4.928398892323234,47.27600071599883],"type":"Point"},"properties":{"objectid":953,"communes":"Flavignerot","nom":"Rente Neuve","code_insee":"21270","lignes":"R33; BC75; DP","code_mkg":"24_003_a","terminus_1":null,"geo_point_2d":{"lon":4.928398892323234,"lat":47.27600071599883}}},{"type":"Feature","geometry":{"coordinates":[5.1252744796447,47.298000435539294],"type":"Point"},"properties":{"objectid":956,"communes":"Chevigny-Saint-Sauveur","nom":"CHEVIGNY","code_insee":"21171","lignes":"F41","code_mkg":"05_006_b","terminus_1":"Terminus","geo_point_2d":{"lon":5.1252744796447,"lat":47.298000435539294}}},{"type":"Feature","geometry":{"coordinates":[5.17001912968292,47.308500402988415],"type":"Point"},