{"type":"FeatureCollection","features":[{"type":"Feature","geometry":{"type":"Point","coordinates":[5.039301804073491,47.310072104366675]},"properties":{"nature":"IUFM","codcomm":"210231","nom":"Ecole Sup\u00e9rieure du Professorat et de l'Education","privepubli":null,"quartier":"Chevreul - Parc","nom_complet":"Ecole Sup\u00e9rieure du Professorat et de l'Education, Dijon","commune":"Dijon"}},{"type":"Feature","geometry":{"type":"Point","coordinates":[5.037069694627826,47.35229471354515]},"properties":{"nature":"Coll\u00e8ge","codcomm":"210231","nom":"Coll\u00e8ge Andr\u00e9 Malraux","privepubli":"public","quartier":"Varennes - Toison d'Or - Joffre","nom_complet":"Coll\u00e8ge Andr\u00e9 Malraux, Dijon","commune":"Dijon"}},{"type":"Feature","geometry":{"type":"Point","coordinates":[5.055191398365808,47.26392348401163]},"properties":{"nature":"Autres","codcomm":"210473","nom":"Fondation Les apprentis d'Auteuil","privepubli":null,"quartier":null,"nom_complet":"Fondation Les apprentis d'Auteuil, Ouges","commune":"Ouges"}},{"type":"Feature","geometry":{"type":"Point","coordinates":[5.0391500250307635,47.317270558385395]},"properties":{"nature":"Ecole maternelle","codcomm":"210231","nom":"Ecole maternelle Jos\u00e9phine Baker","privepubli":"public","quartier":"Centre-Ville","nom_complet":"Ecole maternelle Jos\u00e9phine Baker, Dijon","commune":"Dijon"}},{"type":"Feature","geometry":{"type":"Point","coordinates":[5.026279341634216,47.31203130478107]},"properties":{"nature":"Ecole maternelle","codcomm":"210231","nom":"Ecole maternelle Paulette L\u00e9vy","privepubli":"public","quartier":"Bourroches - Port du Canal - Valendons - Montagne Sainte-Anne","nom_complet":"Ecole maternelle Paulette L\u00e9vy, Dijon","commune":"Dijon"}},{"type":"Feature","geometry":{"type":"Point","coordinates":[5.032046402787411,47.32262069302707]},"properties":{"nature":"Ecole maternelle","codcomm":"210231","nom":"Ecole maternelle Darcy Mauchauss\u00e9","privepubli":"public","quartier":"Centre-Ville","nom_complet":"Ecole maternelle Darcy Mauchauss\u00e9, Dijon","commune":"Dijon"}},{"type":"Feature","geometry":{"type":"Point","coordinates":[5.044232416614419,47.32741821634873]},"properties":{"nature":"Ecole sp\u00e9cialis\u00e9e","codcomm":"210231","nom":"Ecole interr\u00e9gionale d'avocats","privepubli":null,"quartier":"Maladi\u00e8re - Drapeau - Clemenceau","nom_complet":"Ecole interr\u00e9gionale d'avocats, Dijon","commune":"Dijon"}},{"type":"Feature","geometry":{"type":"Point","coordinates":[5.111515226176875,47.291586045249154]},"properties":{"nature":"Ecole maternelle","codcomm":"210605","nom":"Maternelle de la Fontaine","privepubli":"public","quartier":null,"nom_complet":"Maternelle de la Fontaine, Sennecey-l\u00e8s-Dijon","commune":"Sennecey-l\u00e8s-Dijon"}},{"type":"Feature","geometry":{"type":"Point","coordinates":[5.0318636916071755,47.33146029763521]},"properties":{"nature":"Ecole maternelle","codcomm":"210231","nom":"Ecole maternelle Montchapet","privepubli":"public","quartier":"Montchapet","nom_complet":"Ecole maternelle Montchapet, Dijon","commune":"Dijon"}},{"type":"Feature","geometry":{"type":"Point","coordinates":[5.074407262396923,47.31435687224546]},"properties":{"nature":"H\u00e9bergement pour \u00e9tudiants","codcomm":"210231","nom":"R\u00e9sidence universitaire Beaune","privepubli":null,"quartier":"Universit\u00e9","nom_complet":"R\u00e9sidence universitaire Beaune, Dijon","commune":"Dijon"}},{"type":"Feature","geometry":{"type":"Point","coordinates":[5.082692612023895,47.3114227239774]},"properties":{"nature":"Ecole sp\u00e9cialis\u00e9e","codcomm":"210231","nom":"CREPS de Mirande","privepubli":null,"quartier":"Universit\u00e9","nom_complet":"CREPS de Mirande, Dijon","commune":"Dijon"}},{"type":"Feature","geometry":{"type":"Point","coordinates":[5.041325939616356,47.326157763584966]},"properties":{"nature":"Ecole \u00e9l\u00e9mentaire","codcomm":"210231","nom":"Ecole \u00e9l\u00e9mentaire Tr\u00e9mouille","privepubli":"public","quartier":"Centre-Ville","nom_complet":"Ecole \u00e9l\u00e9mentaire Tr\u00e9mouille, Dijon","commune":"Dijon"}},{"type":"Feature","geometry":{"type":"Point","coordinates":[5.0505386237638,47.33624205530334]},"properties":{"nature":"Ecole \u00e9l\u00e9mentaire","codcomm":"210231","nom":"Ecole \u00e9l\u00e9mentaire Maladi\u00e8re","privepubli":"public","quartier":"Maladi\u00e8re - Drapeau - Clemenceau","nom_complet":"Ecole \u00e9l\u00e9mentaire Maladi\u00e8re, Dijon","commune":"Dijon"}},{"type":"Feature","geometry":{"type":"Point","coordinates":[5.042922377409036,47.335519559311955]},"properties":{"nature":"Ecole \u00e9l\u00e9mentaire","codcomm":"210231","nom":"Ecole \u00e9l\u00e9mentaire Drapeau","privepubli":"public","quartier":"Maladi\u00e8re - Drapeau - Clemenceau","nom_complet":"Ecole \u00e9l\u00e9mentaire Drapeau, Dijon","commune":"Dijon"}},{"type":"Feature","geometry":{"type":"Point","coordinates":[5.017900803329263,47.307000335050205]},"properties":{"nature":"Ecole \u00e9l\u00e9mentaire","codcomm":"210231","nom":"Ecole \u00e9l\u00e9mentaire priv\u00e9e Saint B\u00e9nigne","privepubli":"priv\u00e9","quartier":"Bourroches - Port du Canal - Valendons - Montagne Sainte-Anne","nom_complet":"Ecole \u00e9l\u00e9mentaire priv\u00e9e Saint B\u00e9nigne, Dijon","commune":"Dijon"}},{"type":"Feature","geometry":{"type":"Point","coordinates":[5.042931861326227,47.34301845105778]},"properties":{"nature":"Ecole maternelle","codcomm":"210231","nom":"Ecole maternelle Alain Millot","privepubli":"public","quartier":"Varennes - Toison d'Or - Joffre","nom_complet":"Ecole maternelle Alain Millot, Dijon","commune":"Dijon"}},{"type":"Feature","geometry":{"type":"Point","coordinates":[5.06378811966507,47.31355918994583]},"properties":{"nature":"Universit\u00e9","codcomm":"210231","nom":"Amphith\u00e9\u00e2tres Aristote et Platon","privepubli":null,"quartier":"Universit\u00e9","nom_complet":"Amphith\u00e9\u00e2tres Aristote et Platon, Dijon","commune":"Dijon"}},{"type":"Feature","geometry":{"type":"Point","coordinates":[5.063329909195271,47.31299554361491]},"properties":{"nature":"Universit\u00e9","codcomm":"210231","nom":"P\u00f4le d'\u00e9conomie et de gestion","privepubli":null,"quartier":"Universit\u00e9","nom_complet":"P\u00f4le d'\u00e9conomie et de gestion, Dijon","commune":"Dijon"}},{"type":"Feature","geometry":{"type":"Point","coordinates":[5.060041494054472,47.309470564535765]},"properties":{"nature":"Ecole maternelle","codcomm":"210231","nom":"Ecole maternelle Mansart","privepubli":"public","quartier":"Universit\u00e9","nom_complet":"Ecole maternelle Mansart, Dijon","commune":"Dijon"}},{"type":"Feature","geometry":{"type":"Point","coordinates":[5.066261201609795,47.31604859408681]},"properties":{"nature":"Universit\u00e9","codcomm":"210231","nom":"Amphith\u00e9\u00e2tre Gutenberg","privepubli":null,"quartier":"Universit\u00e9","nom_complet":"Amphith\u00e9\u00e2tre Gutenberg, Dijon","commune":"Dijon"}},{"type":"Feature","geometry":{"type":"Point","coordinates":[5.070241378753251,47.327147407576376]},"properties":{"nature":"H\u00e9bergement pour \u00e9tudiants","codcomm":"210231","nom":"Foyer international d'\u00e9tudiants","privepubli":null,"quartier":"Universit\u00e9","nom_complet":"Foyer international d'\u00e9tudiants, Dijon","commune":"Dijon"}},{"type":"Feature","geometry":{"type":"Point","coordinates":[5.068687991210387,47.31553467802477]},"properties":{"nature":"Universit\u00e9","codcomm":"210231","nom":"Halle technologique Bourgogne technologie","privepubli":null,"quartier":"Universit\u00e9","nom_complet":"Halle technologique Bourgogne technologie, Dijon","commune":"Dijon"}},{"type":"Feature","geometry":{"type":"Point","coordinates":[5.042931861326227,47.34301845105778]},"properties":{"nature":"Ecole \u00e9l\u00e9mentaire","codcomm":"210231","nom":"Ecole \u00e9l\u00e9mentaire Alain Millot","privepubli":"public","quartier":"Varennes - Toison d'Or - Joffre","nom_complet":"Ecole \u00e9l\u00e9mentaire Alain Millot, Dijon","commune":"Dijon"}},{"type":"Feature","geometry":{"type":"Point","coordinates":[5.00367707543649,47.32153834821801]},"properties":{"nature":"Ecole \u00e9l\u00e9mentaire","codcomm":"210231","nom":"Ecole \u00e9l\u00e9mentaire Alsace","privepubli":"public","quartier":"Fontaine d'Ouche - Faubourg Raines - Larrey - Motte Giron","nom_complet":"Ecole \u00e9l\u00e9mentaire Alsace, Dijon","commune":"Dijon"}},{"type":"Feature","geometry":{"type":"Point","coordinates":[5.0049078459259535,47.315431678264964]},"properties":{"nature":"Coll\u00e8ge","codcomm":"210231","nom":"Coll\u00e8ge Gaston Bachelard","privepubli":"public","quartier":"Fontaine d'Ouche - Faubourg Raines - Larrey - Motte Giron","nom_complet":"Coll\u00e8ge Gaston Bachelard, Dijon","commune":"Dijon"}},{"type":"Feature","geometry":{"type":"Point","coordinates":[5.002301541950225,47.32063118622919]},"properties":{"nature":"Ecole \u00e9l\u00e9mentaire","codcomm":"210231","nom":"Ecole \u00e9l\u00e9mentaire Champs-Perdrix","privepubli":"public","quartier":"Fontaine d'Ouche - Faubourg Raines - Larrey - Motte Giron","nom_complet":"Ecole \u00e9l\u00e9mentaire Champs-Perdrix, Dijon","commune":"Dijon"}},{"type":"Feature","geometry":{"type":"Point","coordinates":[5.0674371792901,47.3310332545723]},"properties":{"nature":"CNFPT","codcomm":"210231","nom":"C.N.F.P.T.","privepubli":null,"quartier":"Gr\u00e9silles","nom_complet":"C.N.F.P.T., Dijon","commune":"Dijon"}},{"type":"Feature","geometry":{"type":"Point","coordinates":[5.0658224805659176,47.31541800374341]},"properties":{"nature":"IUFM","codcomm":"210231","nom":"Ecole Sup\u00e9rieure du Professorat et de l'Education","privepubli":null,"quartier":"Universit\u00e9","nom_complet":"Ecole Sup\u00e9rieure du Professorat et de l'Education, Dijon","commune":"Dijon"}},{"type":"Feature","geometry":{"type":"Point","coordinates":[5.034230811005843,47.31034398015552]},"properties":{"nature":"Coll\u00e8ge","codcomm":"210231","nom":"Coll\u00e8ge du Parc","privepubli":"public","quartier":"Chevreul - Parc","nom_complet":"Coll\u00e8ge du Parc, Dijon","commune":"Dijon"}},{"type":"Feature","geometry":{"type":"Point","coordinates":[5.0665873728046895,47.31311804663922]},"properties":{"nature":"Universit\u00e9","codcomm":"210231","nom":"Maison de l'\u00e9tudiant","privepubli":null,"quartier":"Universit\u00e9","nom_complet":"Maison de l'\u00e9tudiant, Dijon","commune":"Dijon"}},{"type":"Feature","geometry":{"type":"Point","coordinates":[5.1322484776377815,47.30376797498751]},"properties":{"nature":"Ecole \u00e9l\u00e9mentaire","codcomm":"210171","nom":"Ecole \u00e9l\u00e9mentaire Henri Marc","privepubli":"public","quartier":null,"nom_complet":"Ecole \u00e9l\u00e9mentaire Henri Marc, Chevigny-Saint-Sauveur","commune":"Chevigny-Saint-Sauveur"}},{"type":"Feature","geometry":{"type":"Point","coordinates":[5.048941816646939,47.342767775621404]},"properties":{"nature":"Ecole maternelle","codcomm":"210231","nom":"Ecole maternelle Beaumarchais","privepubli":"public","quartier":"Varennes - Toison d'Or - Joffre","nom_complet":"Ecole maternelle Beaumarchais, Dijon","commune":"Dijon"}},{"type":"Feature","geometry":{"type":"Point","coordinates":[5.004916525893852,47.279762718669545]},"properties":{"nature":"Coll\u00e8ge","codcomm":"210390","nom":"Coll\u00e8ge Marcel Aym\u00e9","privepubli":"public","quartier":null,"nom_complet":"Coll\u00e8ge Marcel Aym\u00e9, Marsannay-la-C\u00f4te","commune":"Marsannay-la-C\u00f4te"}},{"type":"Feature","geometry":{"type":"Point","coordinates":[5.0016475284089985,47.279847963851594]},"properties":{"nature":"Ecole \u00e9l\u00e9mentaire","codcomm":"210390","nom":"Ecole \u00e9l\u00e9mentaire La Porte d'Or","privepubli":"public","quartier":null,"nom_complet":"Ecole \u00e9l\u00e9mentaire La Porte d'Or, Marsannay-la-C\u00f4te","commune":"Marsannay-la-C\u00f4te"}},{"type":"Feature","geometry":{"type":"Point","coordinates":[5.020528105147769,47.369950325543144]},"properties":{"nature":"Ecole \u00e9l\u00e9mentaire","codcomm":"210003","nom":"Ecole maternelle du Bourg","privepubli":"public","quartier":null,"nom_complet":"Ecole maternelle du Bourg, Ahuy","commune":"Ahuy"}},{"type":"Feature","geometry":{"type":"Point","coordinates":[5.070470014246754,47.31231363421035]},"properties":{"nature":"H\u00e9bergement pour \u00e9tudiants","codcomm":"210231","nom":"R\u00e9sidences universitaires Montmuzard","privepubli":null,"quartier":"Universit\u00e9","nom_complet":"R\u00e9sidences universitaires Montmuzard, Dijon","commune":"Dijon"}},{"type":"Feature","geometry":{"type":"Point","coordinates":[5.044343415298374,47.26125399766023]},"properties":{"nature":"GRETA","codcomm":"210263","nom":"GRETA","privepubli":null,"quartier":null,"nom_complet":"GRETA, Fenay","commune":"Fenay"}},{"type":"Feature","geometry":{"type":"Point","coordinates":[5.038779688339707,47.308974400071016]},"properties":{"nature":"Ecole maternelle","codcomm":"210231","nom":"Ecole maternelle Chevreul","privepubli":"public","quartier":"Chevreul - Parc","nom_complet":"Ecole maternelle Chevreul, Dijon","commune":"Dijon"}},{"type":"Feature","geometry":{"type":"Point","coordinates":[5.139675435719505,47.303426041559085]},"properties":{"nature":"AFPA","codcomm":"210171","nom":"AFPA","privepubli":null,"quartier":null,"nom_complet":"AFPA, Chevigny-Saint-Sauveur","commune":"Chevigny-Saint-Sauveur"}},{"type":"Feature","geometry":{"type":"Point","coordinates":[5.088011054761916,47.33441776809173]},"properties":{"nature":"Groupe scolaire","codcomm":"210540","nom":"Groupe scolaire Val Sully","privepubli":"public","quartier":null,"nom_complet":"Groupe scolaire Val Sully, Saint-Apollinaire","commune":"Saint-Apollinaire"}},{"type":"Feature","geometry":{"type":"Point","coordinates":[5.11944548108801,47.31707233031836]},"properties":{"nature":"CFA","codcomm":"210515","nom":"Maison Familiale Rurale","privepubli":null,"quartier":null,"nom_complet":"Maison Familiale Rurale, Quetigny","commune":"Quetigny"}},{"type":"Feature","geometry":{"type":"Point","coordinates":[5.069055669999917,47.31849953462939]},"properties":{"nature":"Ecole sp\u00e9cialis\u00e9e","codcomm":"210231","nom":"Institut r\u00e9gional sup\u00e9rieur du travail \u00e9ducatif et social  IRTESS","privepubli":null,"quartier":"Universit\u00e9","nom_complet":"Institut r\u00e9gional sup\u00e9rieur du travail \u00e9ducatif et social  IRTESS, Dijon","commune":"Dijon"}},{"type":"Feature","geometry":{"type":"Point","coordinates":[5.036939655122704,47.314603957934835]},"properties":{"nature":"Coll\u00e8ge","codcomm":"210231","nom":"Coll\u00e8ge priv\u00e9 St-Joseph-St-Ursule","privepubli":"priv\u00e9","quartier":"Chevreul - Parc","nom_complet":"Coll\u00e8ge priv\u00e9 St-Joseph-St-Ursule, Dijon","commune":"Dijon"}},{"type":"Feature","geometry":{"type":"Point","coordinates":[5.052786503966602,47.30464925850771]},"properties":{"nature":"Coll\u00e8ge","codcomm":"210231","nom":"Coll\u00e8ge des Lentill\u00e8res","privepubli":"public","quartier":"Chevreul - Parc","nom_complet":"Coll\u00e8ge des Lentill\u00e8res, Dijon","commune":"Dijon"}},{"type":"Feature","geometry":{"type":"Point","coordinates":[5.0343915183875705,47.320821956726604]},"properties":{"nature":"Ecole maternelle","codcomm":"210231","nom":"Ecole maternelle priv\u00e9e Sainte Ursule","privepubli":"priv\u00e9","quartier":"Centre-Ville","nom_complet":"Ecole maternelle priv\u00e9e Sainte Ursule, Dijon","commune":"Dijon"}},{"type":"Feature","geometry":{"type":"Point","coordinates":[5.052029271817041,47.29696258937458]},"properties":{"nature":"Ecole maternelle","codcomm":"210355","nom":"Maternelle C\u00e9lestin Freinet","privepubli":"public","quartier":null,"nom_complet":"Maternelle C\u00e9lestin Freinet, Longvic","commune":"Longvic"}},{"type":"Feature","geometry":{"type":"Point","coordinates":[5.072839284573925,47.31138514390149]},"properties":{"nature":"Universit\u00e9","codcomm":"210231","nom":"L'autre h\u00e9misph\u00e8re","privepubli":null,"quartier":"Universit\u00e9","nom_complet":"L'autre h\u00e9misph\u00e8re, Dijon","commune":"Dijon"}},{"type":"Feature","geometry":{"type":"Point","coordinates":[5.181894528085768,47.305310606421145]},"properties":{"nature":"Ecole maternelle","codcomm":"210105","nom":"Ecole maternelle","privepubli":"public","quartier":null,"nom_complet":"Ecole maternelle, Bressey-sur-Tille","commune":"Bressey-sur-Tille"}},{"type":"Feature","geometry":{"type":"Point","coordinates":[5.068084862167726,47.31195089316451]},"properties":{"nature":"Universit\u00e9","codcomm":"210231","nom":"Salles d'enseignement","privepubli":null,"quartier":"Universit\u00e9","nom_complet":"Salles d'enseignement, Dijon","commune":"Dijon"}},{"type":"Feature","geometry":{"type":"Point","coordinates":[5.067602691546243,47.31963351874646]},"properties":{"nature":"Universit\u00e9","codcomm":"210231","nom":"Centre europ\u00e9en des sciences du go\u00fbt","privepubli":null,"quartier":"Universit\u00e9","nom_complet":"Centre europ\u00e9en des sciences du go\u00fbt, Dijon","commune":"Dijon"}},{"type":"Feature","geometry":{"type":"Point","coordinates":[5.026083049630724,47.330127196034155]},"properties":{"nature":"Coll\u00e8ge","codcomm":"210231","nom":"Coll\u00e8ge priv\u00e9 Saint Fran\u00e7ois de Sales (annexe)","privepubli":"priv\u00e9","quartier":"Montchapet","nom_complet":"Coll\u00e8ge priv\u00e9 Saint Fran\u00e7ois de Sales (annexe), Dijon","commune":"Dijon"}},{"type":"Feature","geometry":{"type":"Point","coordinates":[5.053870155093502,47.33501855528005]},"properties":{"nature":"Universit\u00e9","codcomm":"210231","nom":"Centre universitaire catholique de Bourgogne","privepubli":null,"quartier":"Maladi\u00e8re - Drapeau - Clemenceau","nom_complet":"Centre universitaire catholique de Bourgogne, Dijon","commune":"Dijon"}},{"type":"Feature","geometry":{"type":"Point","coordinates":[5.073075440242498,47.33245106412835]},"properties":{"nature":"Coll\u00e8ge","codcomm":"210231","nom":"Coll\u00e8ge Champollion","privepubli":"public","quartier":"Gr\u00e9silles","nom_complet":"Coll\u00e8ge Champollion, Dijon","commune":"Dijon"}},{"type":"Feature","geometry":{"type":"Point","coordinates":[5.037773879405904,47.313969254074266]},"properties":{"nature":"Lyc\u00e9e","codcomm":"210231","nom":"Lyc\u00e9e priv\u00e9 Saint-Joseph","privepubli":"priv\u00e9","quartier":"Chevreul - Parc","nom_complet":"Lyc\u00e9e priv\u00e9 Saint-Joseph, Dijon","commune":"Dijon"}},{"type":"Feature","geometry":{"type":"Point","coordinates":[5.0351195233326145,47.322542468172955]},"properties":{"nature":"H\u00e9bergement pour \u00e9tudiants","codcomm":"210231","nom":"R\u00e9sidence universitaire Maret","privepubli":null,"quartier":"Centre-Ville","nom_complet":"R\u00e9sidence universitaire Maret, Dijon","commune":"Dijon"}},{"type":"Feature","geometry":{"type":"Point","coordinates":[5.041076343816516,47.32789472959949]},"properties":{"nature":"Grande \u00e9cole","codcomm":"210231","nom":"Ecole sup\u00e9rieure de commerce","privepubli":null,"quartier":"Montchapet","nom_complet":"Ecole sup\u00e9rieure de commerce, Dijon","commune":"Dijon"}},{"type":"Feature","geometry":{"type":"Point","coordinates":[5.0592217947782725,47.33395719309676]},"properties":{"nature":"Ecole \u00e9l\u00e9mentaire","codcomm":"210231","nom":"Ecole \u00e9l\u00e9mentaire York","privepubli":"public","quartier":"Gr\u00e9silles","nom_complet":"Ecole \u00e9l\u00e9mentaire York, Dijon","commune":"Dijon"}},{"type":"Feature","geometry":{"type":"Point","coordinates":[5.016326650909629,47.328570605544826]},"properties":{"nature":"Ecole maternelle","codcomm":"210231","nom":"Ecole maternelle priv\u00e9e Notre Dame des Ange","privepubli":"priv\u00e9","quartier":"Montchapet","nom_complet":"Ecole maternelle priv\u00e9e Notre Dame des Ange, Dijon","commune":"Dijon"}},{"type":"Feature","geometry":{"type":"Point","coordinates":[5.060041494054472,47.309470564535765]},"properties":{"nature":"Ecole \u00e9l\u00e9mentaire","codcomm":"210231","nom":"Ecole \u00e9l\u00e9mentaire Mansart","privepubli":"public","quartier":"Universit\u00e9","nom_complet":"Ecole \u00e9l\u00e9mentaire Mansart, Dijon","commune":"Dijon"}},{"type":"Feature","geometry":{"type":"Point","coordinates":[5.070817679702624,47.3176391181243]},"properties":{"nature":"Universit\u00e9","codcomm":"210231","nom":"I.N.R.A.","privepubli":null,"quartier":"Universit\u00e9","nom_complet":"I.N.R.A., Dijon","commune":"Dijon"}},{"type":"Feature","geometry":{"type":"Point","coordinates":[5.065087886391583,47.3145849163472]},"properties":{"nature":"Universit\u00e9","codcomm":"210231","nom":"UFR juridique et \u00e9conomique","privepubli":null,"quartier":"Universit\u00e9","nom_complet":"UFR juridique et \u00e9conomique, Dijon","commune":"Dijon"}},{"type":"Feature","geometry":{"type":"Point","coordinates":[4.992843486407443,47.339656894007476]},"properties":{"nature":"Coll\u00e8ge","codcomm":"210617","nom":"Coll\u00e8ge Boris Vian","privepubli":"public","quartier":null,"nom_complet":"Coll\u00e8ge Boris Vian, Talant","commune":"Talant"}},{"type":"Feature","geometry":{"type":"Point","coordinates":[5.035415117933208,47.307603053735896]},"properties":{"nature":"Ecole \u00e9l\u00e9mentaire","codcomm":"210231","nom":"Ecole \u00e9l\u00e9mentaire du Petit-Bernard","privepubli":"public","quartier":"Chevreul - Parc","nom_complet":"Ecole \u00e9l\u00e9mentaire du Petit-Bernard, Dijon","commune":"Dijon"}},{"type":"Feature","geometry":{"type":"Point","coordinates":[5.014521393497015,47.32961164604236]},"properties":{"nature":"Ecole \u00e9l\u00e9mentaire","codcomm":"210231","nom":"\u00c9cole \u00e9l\u00e9mentaire priv\u00e9e Alix Providence","privepubli":"priv\u00e9","quartier":"Montchapet","nom_complet":"\u00c9cole \u00e9l\u00e9mentaire priv\u00e9e Alix Providence, Dijon","commune":"Dijon"}},{"type":"Feature","geometry":{"type":"Point","coordinates":[5.042850522842313,47.31440639885284]},"properties":{"nature":"Ecole \u00e9l\u00e9mentaire","codcomm":"210231","nom":"\u00c9cole \u00e9l\u00e9mentaire priv\u00e9e Saint-Pierre","privepubli":"priv\u00e9","quartier":"Chevreul - Parc","nom_complet":"\u00c9cole \u00e9l\u00e9mentaire priv\u00e9e Saint-Pierre, Dijon","commune":"Dijon"}},{"type":"Feature","geometry":{"type":"Point","coordinates":[5.051477018546217,47.313744106316946]},"properties":{"nature":"Ecole maternelle","codcomm":"210231","nom":"Ecole maternelle Voltaire","privepubli":"public","quartier":"Universit\u00e9","nom_complet":"Ecole maternelle Voltaire, Dijon","commune":"Dijon"}},{"type":"Feature","geometry":{"type":"Point","coordinates":[5.014739413061055,47.31297761012493]},"properties":{"nature":"Ecole \u00e9l\u00e9mentaire","codcomm":"210231","nom":"Ecole \u00e9l\u00e9mentaire Larrey","privepubli":"public","quartier":"Bourroches - Port du Canal - Valendons - Montagne Sainte-Anne","nom_complet":"Ecole \u00e9l\u00e9mentaire Larrey, Dijon","commune":"Dijon"}},{"type":"Feature","geometry":{"type":"Point","coordinates":[5.049694405820337,47.317480002373]},"properties":{"nature":"Lyc\u00e9e","codcomm":"210231","nom":"Lyc\u00e9e Hippolyte Fontaine","privepubli":"public","quartier":"Centre-Ville","nom_complet":"Lyc\u00e9e Hippolyte Fontaine, Dijon","commune":"Dijon"}},{"type":"Feature","geometry":{"type":"Point","coordinates":[5.01470078507809,47.30529933480879]},"properties":{"nature":"Ecole maternelle","codcomm":"210231","nom":"Ecole maternelle Monts de vignes","privepubli":"public","quartier":"Bourroches - Port du Canal - Valendons - Montagne Sainte-Anne","nom_complet":"Ecole maternelle Monts de vignes, Dijon","commune":"Dijon"}},{"type":"Feature","geometry":{"type":"Point","coordinates":[5.010698471822093,47.30390607592028]},"properties":{"nature":"Ecole \u00e9l\u00e9mentaire","codcomm":"210231","nom":"Ecole \u00e9l\u00e9mentaire Valendons","privepubli":"public","quartier":"Bourroches - Port du Canal - Valendons - Montagne Sainte-Anne","nom_complet":"Ecole \u00e9l\u00e9mentaire Valendons, Dijon","commune":"Dijon"}},{"type":"Feature","geometry":{"type":"Point","coordinates":[5.008015196003729,47.28382806658833]},"properties":{"nature":"GRETA","codcomm":"210166","nom":"D.A.F.C.O. Acad\u00e9mie de Dijon","privepubli":null,"quartier":null,"nom_complet":"D.A.F.C.O. Acad\u00e9mie de Dijon, Chen\u00f4ve","commune":"Chen\u00f4ve"}},{"type":"Feature","geometry":{"type":"Point","coordinates":[5.032615571728958,47.33111882777078]},"properties":{"nature":"Ecole \u00e9l\u00e9mentaire","codcomm":"210231","nom":"Ecole \u00e9l\u00e9mentaire Montchapet","privepubli":"public","quartier":"Montchapet","nom_complet":"Ecole \u00e9l\u00e9mentaire Montchapet, Dijon","commune":"Dijon"}},{"type":"Feature","geometry":{"type":"Point","coordinates":[5.055941662820332,47.34058992580482]},"properties":{"nature":"Ecole \u00e9l\u00e9mentaire","codcomm":"210231","nom":"Ecole \u00e9l\u00e9mentaire Lamartine","privepubli":"public","quartier":"Varennes - Toison d'Or - Joffre","nom_complet":"Ecole \u00e9l\u00e9mentaire Lamartine, Dijon","commune":"Dijon"}},{"type":"Feature","geometry":{"type":"Point","coordinates":[5.018520649097907,47.32357329336716]},"properties":{"nature":"Ecole \u00e9l\u00e9mentaire","codcomm":"210231","nom":"Ecole \u00e9l\u00e9mentaire Ouest","privepubli":"public","quartier":"Montchapet","nom_complet":"Ecole \u00e9l\u00e9mentaire Ouest, Dijon","commune":"Dijon"}},{"type":"Feature","geometry":{"type":"Point","coordinates":[5.034324804856255,47.31401026600145]},"properties":{"nature":"Ecole maternelle","codcomm":"210231","nom":"Ecole maternelle du Petit-C\u00eeteaux","privepubli":"public","quartier":"Chevreul - Parc","nom_complet":"Ecole maternelle du Petit-C\u00eeteaux, Dijon","commune":"Dijon"}},{"type":"Feature","geometry":{"type":"Point","coordinates":[5.1176390049259854,47.31082367899866]},"properties":{"nature":"Ecole \u00e9l\u00e9mentaire","codcomm":"210515","nom":"Ecole \u00e9l\u00e9mentaire des C\u00e8dres","privepubli":"public","quartier":null,"nom_complet":"Ecole \u00e9l\u00e9mentaire des C\u00e8dres, Quetigny","commune":"Quetigny"}},{"type":"Feature","geometry":{"type":"Point","coordinates":[5.072439925472444,47.3313231816555]},"properties":{"nature":"Ecole maternelle","codcomm":"210231","nom":"Ecole maternelle Champollion","privepubli":"public","quartier":"Gr\u00e9silles","nom_complet":"Ecole maternelle Champollion, Dijon","commune":"Dijon"}},{"type":"Feature","geometry":{"type":"Point","coordinates":[5.024427173422417,47.32214055881181]},"properties":{"nature":"AFPA","codcomm":"210231","nom":"AFPA","privepubli":null,"quartier":"Fontaine d'Ouche - Faubourg Raines - Larrey - Motte Giron","nom_complet":"AFPA, Dijon","commune":"Dijon"}},{"type":"Feature","geometry":null,"properties":{"nature":"Groupe scolaire","codcomm":"210278","nom":"Groupe scolaire des Saverneys","privepubli":"public","quartier":null,"nom_complet":"Groupe scolaire des Saverneys, Fontaine-l\u00e8s-Dijon","commune":"Fontaine-l\u00e8s-Dijon","geo_point_2d":null}},{"type":"Feature","geometry":{"type":"Point","coordinates":[5.120230809939979,47.2735228643393]},"properties":{"nature":"Groupe scolaire","codcomm":"210452","nom":"Groupe scolaire Henri Hirschy","privepubli":"public","quartier":null,"nom_complet":"Groupe scolaire Henri Hirschy, Crimolois","commune":"Neuilly-Crimolois"}},{"type":"Feature","geometry":{"type":"Point","coordinates":[5.007148404778348,47.28834611823706]},"properties":{"nature":"Groupe scolaire","codcomm":"210166","nom":"Groupe scolaire des Grands Crus","privepubli":"public","quartier":null,"nom_complet":"Groupe scolaire des Grands Crus, Chen\u00f4ve","commune":"Chen\u00f4ve"}},{"type":"Feature","geometry":{"type":"Point","coordinates":[5.009252955269956,47.294316849193514]},"properties":{"nature":"Groupe scolaire","codcomm":"210166","nom":"Groupe scolaire les Bourdeni\u00e8res","privepubli":"public","quartier":null,"nom_complet":"Groupe scolaire les Bourdeni\u00e8res, Chen\u00f4ve","commune":"Chen\u00f4ve"}},{"type":"Feature","geometry":{"type":"Point","coordinates":[5.1368039835954615,47.300591271969644]},"properties":{"nature":"Groupe scolaire","codcomm":"210171","nom":"Groupe scolaire du Breuil","privepubli":"public","quartier":null,"nom_complet":"Groupe scolaire du Breuil, Chevigny-Saint-Sauveur","commune":"Chevigny-Saint-Sauveur"}},{"type":"Feature","geometry":{"type":"Point","coordinates":[5.1266628435025945,47.29267895454122]},"properties":{"nature":"Groupe scolaire","codcomm":"210171","nom":"Groupe scolaire Ez Allou\u00e8res","privepubli":"public","quartier":null,"nom_complet":"Groupe scolaire Ez Allou\u00e8res, Chevigny-Saint-Sauveur","commune":"Chevigny-Saint-Sauveur"}},{"type":"Feature","geometry":{"type":"Point","coordinates":[5.075035677251635,47.260081867614204]},"properties":{"nature":"Ecole maternelle","codcomm":"210473","nom":"Ecole maternelle","privepubli":"public","quartier":null,"nom_complet":"Ecole maternelle, Ouges","commune":"Ouges"}},{"type":"Feature","geometry":{"type":"Point","coordinates":[5.042922377409036,47.335519559311955]},"properties":{"nature":"Ecole maternelle","codcomm":"210231","nom":"Ecole maternelle Drapeau","privepubli":"public","quartier":"Maladi\u00e8re - Drapeau - Clemenceau","nom_complet":"Ecole maternelle Drapeau, Dijon","commune":"Dijon"}},{"type":"Feature","geometry":{"type":"Point","coordinates":[5.0602865088121325,47.29529978190982]},"properties":{"nature":"Coll\u00e8ge","codcomm":"210355","nom":"Coll\u00e8ge Roland Dorgel\u00e8s","privepubli":"public","quartier":null,"nom_complet":"Coll\u00e8ge Roland Dorgel\u00e8s, Longvic","commune":"Longvic"}},{"type":"Feature","geometry":{"type":"Point","coordinates":[5.002301541950225,47.32063118622919]},"properties":{"nature":"Ecole maternelle","codcomm":"210231","nom":"Ecole maternelle Champs-Perdrix","privepubli":"public","quartier":"Fontaine d'Ouche - Faubourg Raines - Larrey - Motte Giron","nom_complet":"Ecole maternelle Champs-Perdrix, Dijon","commune":"Dijon"}},{"type":"Feature","geometry":{"type":"Point","coordinates":[5.061860304934334,47.31125687171034]},"properties":{"nature":"Restaurant pour \u00e9tudiants","codcomm":"210231","nom":"Restaurant universitaire Mansart","privepubli":null,"quartier":"Universit\u00e9","nom_complet":"Restaurant universitaire Mansart, Dijon","commune":"Dijon"}},{"type":"Feature","geometry":{"type":"Point","coordinates":[5.075746784951854,47.31157933493152]},"properties":{"nature":"Universit\u00e9","codcomm":"210231","nom":"UFRSTAPS","privepubli":null,"quartier":"Universit\u00e9","nom_complet":"UFRSTAPS, Dijon","commune":"Dijon"}},{"type":"Feature","geometry":{"type":"Point","coordinates":[5.053750000061722,47.34181468315798]},"properties":{"nature":"Coll\u00e8ge","codcomm":"210231","nom":"Coll\u00e8ge Clos de Pouilly","privepubli":"public","quartier":"Varennes - Toison d'Or - Joffre","nom_complet":"Coll\u00e8ge Clos de Pouilly, Dijon","commune":"Dijon"}},{"type":"Feature","geometry":{"type":"Point","coordinates":[5.075411840234621,47.31187934916352]},"properties":{"nature":"Universit\u00e9","codcomm":"210231","nom":"UFRSTAPS - Gymnase Alain Sabl\u00e9","privepubli":null,"quartier":"Universit\u00e9","nom_complet":"UFRSTAPS - Gymnase Alain Sabl\u00e9, Dijon","commune":"Dijon"}},{"type":"Feature","geometry":{"type":"Point","coordinates":[5.018520649097907,47.32357329336716]},"properties":{"nature":"Ecole maternelle","codcomm":"210231","nom":"Ecole maternelle Ouest","privepubli":"public","quartier":"Montchapet","nom_complet":"Ecole maternelle Ouest, Dijon","commune":"Dijon"}},{"type":"Feature","geometry":{"type":"Point","coordinates":[5.047773226603956,47.260498354612494]},"properties":{"nature":"Ecole \u00e9l\u00e9mentaire","codcomm":"210263","nom":"Ecole \u00e9l\u00e9mentaire","privepubli":"public","quartier":null,"nom_complet":"Ecole \u00e9l\u00e9mentaire, Fenay","commune":"Fenay"}},{"type":"Feature","geometry":{"type":"Point","coordinates":[5.042008980911612,47.32747914448626]},"properties":{"nature":"Ecole maternelle","codcomm":"210231","nom":"Ecole maternelle Devosge","privepubli":"public","quartier":"Montchapet","nom_complet":"Ecole maternelle Devosge, Dijon","commune":"Dijon"}},{"type":"Feature","geometry":{"type":"Point","coordinates":[5.014704836237161,47.303441057180095]},"properties":{"nature":"Coll\u00e8ge","codcomm":"210231","nom":"Coll\u00e8ge Henri Dunant","privepubli":"public","quartier":"Bourroches - Port du Canal - Valendons - Montagne Sainte-Anne","nom_complet":"Coll\u00e8ge Henri Dunant, Dijon","commune":"Dijon"}},{"type":"Feature","geometry":{"type":"Point","coordinates":[5.009912080900099,47.30344832306032]},"properties":{"nature":"Ecole maternelle","codcomm":"210231","nom":"Ecole maternelle Valendons","privepubli":"public","quartier":"Bourroches - Port du Canal - Valendons - Montagne Sainte-Anne","nom_complet":"Ecole maternelle Valendons, Dijon","commune":"Dijon"}},{"type":"Feature","geometry":{"type":"Point","coordinates":[5.005600910728118,47.3111751463444]},"properties":{"nature":"Ecole \u00e9l\u00e9mentaire","codcomm":"210231","nom":"Ecole \u00e9l\u00e9mentaire Gustave Eiffel","privepubli":"public","quartier":"Bourroches - Port du Canal - Valendons - Montagne Sainte-Anne","nom_complet":"Ecole \u00e9l\u00e9mentaire Gustave Eiffel, Dijon","commune":"Dijon"}},{"type":"Feature","geometry":{"type":"Point","coordinates":[5.0063251903962795,47.26720147186633]},"properties":{"nature":"Groupe scolaire","codcomm":"210481","nom":"Groupe scolaire","privepubli":"public","quartier":null,"nom_complet":"Groupe scolaire, Perrigny-l\u00e8s-Dijon","commune":"Perrigny-l\u00e8s-Dijon"}},{"type":"Feature","geometry":{"type":"Point","coordinates":[4.992544203042925,47.33842631907433]},"properties":{"nature":"Groupe scolaire","codcomm":"210617","nom":"Groupe scolaire Jacques Pr\u00e9vert","privepubli":"public","quartier":null,"nom_complet":"Groupe scolaire Jacques Pr\u00e9vert, Talant","commune":"Talant"}},{"type":"Feature","geometry":{"type":"Point","coordinates":[5.103006341170426,47.31840883437243]},"properties":{"nature":"Groupe scolaire","codcomm":"210515","nom":"Groupe scolaire de la Fontaine aux Jardins","privepubli":"public","quartier":null,"nom_complet":"Groupe scolaire de la Fontaine aux Jardins, Quetigny","commune":"Quetigny"}},{"type":"Feature","geometry":{"type":"Point","coordinates":[5.05082792652688,47.3203824622913]},"properties":{"nature":"Ecole maternelle","codcomm":"210231","nom":"Ecole maternelle priv\u00e9e Saint Joseph","privepubli":"priv\u00e9","quartier":"Centre-Ville","nom_complet":"Ecole maternelle priv\u00e9e Saint Joseph, Dijon","commune":"Dijon"}},{"type":"Feature","geometry":{"type":"Point","coordinates":[5.055941662820332,47.34058992580482]},"properties":{"nature":"Ecole maternelle","codcomm":"210231","nom":"Ecole maternelle Lamartine","privepubli":"public","quartier":"Varennes - Toison d'Or - Joffre","nom_complet":"Ecole maternelle Lamartine, Dijon","commune":"Dijon"}},{"type":"Feature","geometry":{"type":"Point","coordinates":[5.072439925472444,47.3313231816555]},"properties":{"nature":"Ecole \u00e9l\u00e9mentaire","codcomm":"210231","nom":"Ecole \u00e9l\u00e9mentaire Champollion","privepubli":"public","quartier":"Gr\u00e9silles","nom_complet":"Ecole \u00e9l\u00e9mentaire Champollion, Dijon","commune":"Dijon"}},{"type":"Feature","geometry":{"type":"Point","coordinates":[4.992467424705143,47.31741880624786]},"properties":{"nature":"CFA","codcomm":"210231","nom":"Centre de formation des apprentis du b\u00e2timent et des travaux publics","privepubli":null,"quartier":"Fontaine d'Ouche - Faubourg Raines - Larrey - Motte Giron","nom_complet":"Centre de formation des apprentis du b\u00e2timent et des travaux publics, Dijon","commune":"Dijon"}},{"type":"Feature","geometry":{"type":"Point","coordinates":[5.006276394044555,47.316279505212826]},"properties":{"nature":"Ecole maternelle","codcomm":"210231","nom":"Ecole maternelle Jean-Baptiste Lallemand","privepubli":"public","quartier":"Fontaine d'Ouche - Faubourg Raines - Larrey - Motte Giron","nom_complet":"Ecole maternelle Jean-Baptiste Lallemand, Dijon","commune":"Dijon"}},{"type":"Feature","geometry":{"type":"Point","coordinates":[5.104736179269558,47.292778907580406]},"properties":{"nature":"Ecole \u00e9l\u00e9mentaire","codcomm":"210605","nom":"Ecole \u00e9l\u00e9mentaire Roland Belleville","privepubli":"public","quartier":null,"nom_complet":"Ecole \u00e9l\u00e9mentaire Roland Belleville, Sennecey-l\u00e8s-Dijon","commune":"Sennecey-l\u00e8s-Dijon"}},{"type":"Feature","geometry":{"type":"Point","coordinates":[5.104736280270613,47.29277918822322]},"properties":{"nature":"Ecole maternelle","codcomm":"210605","nom":"Ecole maternelle Roland Belleville","privepubli":"public","quartier":null,"nom_complet":"Ecole maternelle Roland Belleville, Sennecey-l\u00e8s-Dijon","commune":"Sennecey-l\u00e8s-Dijon"}},{"type":"Feature","geometry":{"type":"Point","coordinates":[5.060020226169266,47.32459991027747]},"properties":{"nature":"Ecole maternelle","codcomm":"210231","nom":"\u00c9cole maternelle priv\u00e9e Saint Dominique","privepubli":"priv\u00e9","quartier":"Universit\u00e9","nom_complet":"\u00c9cole maternelle priv\u00e9e Saint Dominique, Dijon","commune":"Dijon"}},{"type":"Feature","geometry":{"type":"Point","coordinates":[5.01798401191438,47.33571028530394]},"properties":{"nature":"Lyc\u00e9e","codcomm":"210231","nom":"Lyc\u00e9e Montchapet","privepubli":"public","quartier":"Montchapet","nom_complet":"Lyc\u00e9e Montchapet, Dijon","commune":"Dijon"}},{"type":"Feature","geometry":{"type":"Point","coordinates":[5.046064767054723,47.31972790562322]},"properties":{"nature":"Lyc\u00e9e","codcomm":"210231","nom":"Lyc\u00e9e priv\u00e9 Les Arcades","privepubli":"priv\u00e9","quartier":"Centre-Ville","nom_complet":"Lyc\u00e9e priv\u00e9 Les Arcades, Dijon","commune":"Dijon"}},{"type":"Feature","geometry":{"type":"Point","coordinates":[5.01470078507809,47.30529933480879]},"properties":{"nature":"Ecole \u00e9l\u00e9mentaire","codcomm":"210231","nom":"Ecole \u00e9l\u00e9mentaire Monts de vignes","privepubli":"public","quartier":"Bourroches - Port du Canal - Valendons - Montagne Sainte-Anne","nom_complet":"Ecole \u00e9l\u00e9mentaire Monts de vignes, Dijon","commune":"Dijon"}},{"type":"Feature","geometry":{"type":"Point","coordinates":[5.062239493484686,47.310327970644245]},"properties":{"nature":"H\u00e9bergement pour \u00e9tudiants","codcomm":"210231","nom":"R\u00e9sidences universitaires Mansart","privepubli":null,"quartier":"Universit\u00e9","nom_complet":"R\u00e9sidences universitaires Mansart, Dijon","commune":"Dijon"}},{"type":"Feature","geometry":{"type":"Point","coordinates":[5.074541349414547,47.31064767327401]},"properties":{"nature":"Universit\u00e9","codcomm":"210231","nom":"Halle des sports - Maison des sports","privepubli":null,"quartier":"Universit\u00e9","nom_complet":"Halle des sports - Maison des sports, Dijon","commune":"Dijon"}},{"type":"Feature","geometry":{"type":"Point","coordinates":[5.0654551610538885,47.31156159419528]},"properties":{"nature":"Grande \u00e9cole","codcomm":"210231","nom":"AgroSup Dijon","privepubli":null,"quartier":"Universit\u00e9","nom_complet":"AgroSup Dijon, Dijon","commune":"Dijon"}},{"type":"Feature","geometry":{"type":"Point","coordinates":[5.098184755272342,47.23609771896022]},"properties":{"nature":"Universit\u00e9","codcomm":"210106","nom":"I.N.R.A.","privepubli":null,"quartier":null,"nom_complet":"I.N.R.A., Breteni\u00e8re","commune":"Breteni\u00e8re"}},{"type":"Feature","geometry":{"type":"Point","coordinates":[5.065648950852189,47.31606331285708]},"properties":{"nature":"Universit\u00e9","codcomm":"210231","nom":"UFR Sciences de la vie, de la Terre et de l'Environnement (Gabriel)","privepubli":null,"quartier":"Universit\u00e9","nom_complet":"UFR Sciences de la vie, de la Terre et de l'Environnement (Gabriel), Dijon","commune":"Dijon"}},{"type":"Feature","geometry":{"type":"Point","coordinates":[5.067660013137338,47.314932783661035]},"properties":{"nature":"IUFM","codcomm":"210231","nom":"Centre R\u00e9gional  de Documentation P\u00e9dagogique (CRDP)","privepubli":null,"quartier":"Universit\u00e9","nom_complet":"Centre R\u00e9gional  de Documentation P\u00e9dagogique (CRDP), Dijon","commune":"Dijon"}},{"type":"Feature","geometry":{"type":"Point","coordinates":[5.065581168405423,47.290336652236014]},"properties":{"nature":"Ecole maternelle","codcomm":"210355","nom":"Maternelle Paul Emile Victor","privepubli":"public","quartier":null,"nom_complet":"Maternelle Paul Emile Victor, Longvic","commune":"Longvic"}},{"type":"Feature","geometry":{"type":"Point","coordinates":[5.072664293788157,47.31068044668958]},"properties":{"nature":"H\u00e9bergement pour \u00e9tudiants","codcomm":"210231","nom":"R\u00e9sidence universitaire Antipodes","privepubli":null,"quartier":"Universit\u00e9","nom_complet":"R\u00e9sidence universitaire Antipodes, Dijon","commune":"Dijon"}},{"type":"Feature","geometry":{"type":"Point","coordinates":[5.063061721303839,47.32608963130196]},"properties":{"nature":"Ecole maternelle","codcomm":"210231","nom":"Ecole maternelle Montmuzard","privepubli":"public","quartier":"Universit\u00e9","nom_complet":"Ecole maternelle Montmuzard, Dijon","commune":"Dijon"}},{"type":"Feature","geometry":{"type":"Point","coordinates":[5.038760677761298,47.30897935478309]},"properties":{"nature":"Ecole \u00e9l\u00e9mentaire","codcomm":"210231","nom":"Ecole \u00e9l\u00e9mentaire Chevreul","privepubli":"public","quartier":"Chevreul - Parc","nom_complet":"Ecole \u00e9l\u00e9mentaire Chevreul, Dijon","commune":"Dijon"}},{"type":"Feature","geometry":{"type":"Point","coordinates":[5.066406048729568,47.312801063799085]},"properties":{"nature":"Universit\u00e9","codcomm":"210231","nom":"Maison de l'universit\u00e9 - Services communs","privepubli":null,"quartier":"Universit\u00e9","nom_complet":"Maison de l'universit\u00e9 - Services communs, Dijon","commune":"Dijon"}},{"type":"Feature","geometry":{"type":"Point","coordinates":[5.072437939492109,47.321811617353795]},"properties":{"nature":"Ecole sp\u00e9cialis\u00e9e","codcomm":"210231","nom":"Ecole d'infirmiers-anesth\u00e9sistes-aides soignants","privepubli":null,"quartier":"Universit\u00e9","nom_complet":"Ecole d'infirmiers-anesth\u00e9sistes-aides soignants, Dijon","commune":"Dijon"}},{"type":"Feature","geometry":{"type":"Point","coordinates":[4.973770095357388,47.33812288957175]},"properties":{"nature":"Ecole \u00e9l\u00e9mentaire","codcomm":"210485","nom":"Ecole \u00e9l\u00e9mentaire du Parc","privepubli":"public","quartier":null,"nom_complet":"Ecole \u00e9l\u00e9mentaire du Parc, Plombi\u00e8res-l\u00e8s-Dijon","commune":"Plombi\u00e8res-l\u00e8s-Dijon"}},{"type":"Feature","geometry":{"type":"Point","coordinates":[4.995971582548842,47.322681530850076]},"properties":{"nature":"Ecole \u00e9l\u00e9mentaire","codcomm":"210231","nom":"Ecole \u00e9l\u00e9mentaire Buffon","privepubli":"public","quartier":"Fontaine d'Ouche - Faubourg Raines - Larrey - Motte Giron","nom_complet":"Ecole \u00e9l\u00e9mentaire Buffon, Dijon","commune":"Dijon"}},{"type":"Feature","geometry":{"type":"Point","coordinates":[5.017900803329263,47.307000335050205]},"properties":{"nature":"Ecole maternelle","codcomm":"210231","nom":"Ecole maternelle priv\u00e9e Saint B\u00e9nigne","privepubli":"priv\u00e9","quartier":"Bourroches - Port du Canal - Valendons - Montagne Sainte-Anne","nom_complet":"Ecole maternelle priv\u00e9e Saint B\u00e9nigne, Dijon","commune":"Dijon"}},{"type":"Feature","geometry":{"type":"Point","coordinates":[5.0098725216033015,47.2909679175027]},"properties":{"nature":"Lyc\u00e9e","codcomm":"210166","nom":"Lyc\u00e9e Professionnel  Antoine-Antoine","privepubli":"public","quartier":null,"nom_complet":"Lyc\u00e9e Professionnel  Antoine-Antoine, Chen\u00f4ve","commune":"Chen\u00f4ve"}},{"type":"Feature","geometry":{"type":"Point","coordinates":[5.018015836618998,47.3346626336158]},"properties":{"nature":"Coll\u00e8ge","codcomm":"210231","nom":"Coll\u00e8ge Montchapet","privepubli":"public","quartier":"Montchapet","nom_complet":"Coll\u00e8ge Montchapet, Dijon","commune":"Dijon"}},{"type":"Feature","geometry":{"type":"Point","coordinates":[4.994970094289666,47.32256808811496]},"properties":{"nature":"Coll\u00e8ge","codcomm":"210231","nom":"Coll\u00e8ge Jean-Philippe Rameau","privepubli":"public","quartier":"Fontaine d'Ouche - Faubourg Raines - Larrey - Motte Giron","nom_complet":"Coll\u00e8ge Jean-Philippe Rameau, Dijon","commune":"Dijon"}},{"type":"Feature","geometry":{"type":"Point","coordinates":[5.048293102026731,47.32329882879974]},"properties":{"nature":"Lyc\u00e9e","codcomm":"210231","nom":"Lyc\u00e9e Carnot","privepubli":"public","quartier":"Centre-Ville","nom_complet":"Lyc\u00e9e Carnot, Dijon","commune":"Dijon"}},{"type":"Feature","geometry":{"type":"Point","coordinates":[4.999651395671877,47.32316938580982]},"properties":{"nature":"Ecole \u00e9l\u00e9mentaire","codcomm":"210231","nom":"Ecole \u00e9l\u00e9mentaire Anjou","privepubli":"public","quartier":"Fontaine d'Ouche - Faubourg Raines - Larrey - Motte Giron","nom_complet":"Ecole \u00e9l\u00e9mentaire Anjou, Dijon","commune":"Dijon"}},{"type":"Feature","geometry":{"type":"Point","coordinates":[5.04124071241707,47.34927933242991]},"properties":{"nature":"Lyc\u00e9e","codcomm":"210231","nom":"Lyc\u00e9e europ\u00e9en Charles De Gaulle","privepubli":"public","quartier":"Varennes - Toison d'Or - Joffre","nom_complet":"Lyc\u00e9e europ\u00e9en Charles De Gaulle, Dijon","commune":"Dijon"}},{"type":"Feature","geometry":{"type":"Point","coordinates":[5.072850186229817,47.312945597869444]},"properties":{"nature":"Universit\u00e9","codcomm":"210231","nom":"UFR. Scientifique Mirande","privepubli":null,"quartier":"Universit\u00e9","nom_complet":"UFR. Scientifique Mirande, Dijon","commune":"Dijon"}},{"type":"Feature","geometry":{"type":"Point","coordinates":[5.0355917224951305,47.32159045790502]},"properties":{"nature":"Ecole sp\u00e9cialis\u00e9e","codcomm":"210231","nom":"Ecole nationale des Beaux Arts","privepubli":null,"quartier":"Centre-Ville","nom_complet":"Ecole nationale des Beaux Arts, Dijon","commune":"Dijon"}},{"type":"Feature","geometry":{"type":"Point","coordinates":[5.057992679047499,47.314332424721734]},"properties":{"nature":"Ecole \u00e9l\u00e9mentaire","codcomm":"210231","nom":"Ecole \u00e9l\u00e9mentaire Petites Roches","privepubli":"public","quartier":"Universit\u00e9","nom_complet":"Ecole \u00e9l\u00e9mentaire Petites Roches, Dijon","commune":"Dijon"}},{"type":"Feature","geometry":{"type":"Point","coordinates":[5.020528105147769,47.369950325543144]},"properties":{"nature":"Ecole \u00e9l\u00e9mentaire","codcomm":"210003","nom":"Ecole \u00e9l\u00e9mentaire du Bourg","privepubli":"public","quartier":null,"nom_complet":"Ecole \u00e9l\u00e9mentaire du Bourg, Ahuy","commune":"Ahuy"}},{"type":"Feature","geometry":{"type":"Point","coordinates":[5.024325250712214,47.36572729493975]},"properties":{"nature":"Ecole maternelle","codcomm":"210003","nom":"Ecole maternelle des Plantes","privepubli":"public","quartier":null,"nom_complet":"Ecole maternelle des Plantes, Ahuy","commune":"Ahuy"}},{"type":"Feature","geometry":{"type":"Point","coordinates":[5.074002320201518,47.31110979990547]},"properties":{"nature":"Universit\u00e9","codcomm":"210231","nom":"Multiplex","privepubli":null,"quartier":"Universit\u00e9","nom_complet":"Multiplex, Dijon","commune":"Dijon"}},{"type":"Feature","geometry":{"type":"Point","coordinates":[5.070490339204153,47.31561894603187]},"properties":{"nature":"Universit\u00e9","codcomm":"210231","nom":"Service technique universitaire","privepubli":null,"quartier":"Universit\u00e9","nom_complet":"Service technique universitaire, Dijon","commune":"Dijon"}},{"type":"Feature","geometry":{"type":"Point","coordinates":[5.071554497444791,47.30984668086134]},"properties":{"nature":"H\u00e9bergement pour \u00e9tudiants","codcomm":"210231","nom":"R\u00e9sidence universitaire Jean Zay","privepubli":null,"quartier":"Universit\u00e9","nom_complet":"R\u00e9sidence universitaire Jean Zay, Dijon","commune":"Dijon"}},{"type":"Feature","geometry":{"type":"Point","coordinates":[5.036553680334886,47.3270342584365]},"properties":{"nature":"PIJ et CIO","codcomm":"210231","nom":"Centre d'information et d'orientation Dijon1","privepubli":null,"quartier":"Montchapet","nom_complet":"Centre d'information et d'orientation Dijon1, Dijon","commune":"Dijon"}},{"type":"Feature","geometry":{"type":"Point","coordinates":[5.048293102026731,47.32329882879974]},"properties":{"nature":"Coll\u00e8ge","codcomm":"210231","nom":"Coll\u00e8ge Carnot","privepubli":"public","quartier":"Centre-Ville","nom_complet":"Coll\u00e8ge Carnot, Dijon","commune":"Dijon"}},{"type":"Feature","geometry":{"type":"Point","coordinates":[4.9669319210510565,47.341159891629815]},"properties":{"nature":"Lyc\u00e9e","codcomm":"210485","nom":"Lyc\u00e9e agro-alimentaire F\u00e9lix Kir","privepubli":"public","quartier":null,"nom_complet":"Lyc\u00e9e agro-alimentaire F\u00e9lix Kir, Plombi\u00e8res-l\u00e8s-Dijon","commune":"Plombi\u00e8res-l\u00e8s-Dijon"}},{"type":"Feature","geometry":{"type":"Point","coordinates":[5.042850522842313,47.31440639885284]},"properties":{"nature":"Ecole maternelle","codcomm":"210231","nom":"\u00c9cole maternelle priv\u00e9e Saint-Pierre","privepubli":"priv\u00e9","quartier":"Chevreul - Parc","nom_complet":"\u00c9cole maternelle priv\u00e9e Saint-Pierre, Dijon","commune":"Dijon"}},{"type":"Feature","geometry":{"type":"Point","coordinates":[5.0345092399073526,47.31344057420285]},"properties":{"nature":"PIJ et CIO","codcomm":"210231","nom":"Centre d'information et d'orientation Dijon 2","privepubli":null,"quartier":"Chevreul - Parc","nom_complet":"Centre d'information et d'orientation Dijon 2, Dijon","commune":"Dijon"}},{"type":"Feature","geometry":{"type":"Point","coordinates":[5.173808486768926,47.27729817042619]},"properties":{"nature":"Ecole maternelle","codcomm":"210370","nom":"Ecole maternelle","privepubli":"public","quartier":null,"nom_complet":"Ecole maternelle, Magny-sur-Tille","commune":"Magny-sur-Tille"}},{"type":"Feature","geometry":{"type":"Point","coordinates":[5.00154777703888,47.317940380468904]},"properties":{"nature":"Ecole maternelle","codcomm":"210231","nom":"Ecole maternelle Colette","privepubli":"public","quartier":"Fontaine d'Ouche - Faubourg Raines - Larrey - Motte Giron","nom_complet":"Ecole maternelle Colette, Dijon","commune":"Dijon"}},{"type":"Feature","geometry":{"type":"Point","coordinates":[5.0391500250307635,47.317270558385395]},"properties":{"nature":"Ecole \u00e9l\u00e9mentaire","codcomm":"210231","nom":"Ecole \u00e9l\u00e9mentaire Jos\u00e9phine Baker","privepubli":"public","quartier":"Centre-Ville","nom_complet":"Ecole \u00e9l\u00e9mentaire Jos\u00e9phine Baker, Dijon","commune":"Dijon"}},{"type":"Feature","geometry":{"type":"Point","coordinates":[5.049339019501594,47.35022071226811]},"properties":{"nature":"Ecole \u00e9l\u00e9mentaire","codcomm":"210231","nom":"Ecole \u00e9l\u00e9mentaire Ch\u00e2teau de Pouilly","privepubli":"public","quartier":"Varennes - Toison d'Or - Joffre","nom_complet":"Ecole \u00e9l\u00e9mentaire Ch\u00e2teau de Pouilly, Dijon","commune":"Dijon"}},{"type":"Feature","geometry":{"type":"Point","coordinates":[5.066056942343621,47.31570992405564]},"properties":{"nature":"Universit\u00e9","codcomm":"210231","nom":"Amphith\u00e9\u00e2tre Galil\u00e9e","privepubli":null,"quartier":"Universit\u00e9","nom_complet":"Amphith\u00e9\u00e2tre Galil\u00e9e, Dijon","commune":"Dijon"}},{"type":"Feature","geometry":{"type":"Point","coordinates":[5.066917215418085,47.318661981574124]},"properties":{"nature":"Universit\u00e9","codcomm":"210231","nom":"Maison des Examens","privepubli":null,"quartier":"Universit\u00e9","nom_complet":"Maison des Examens, Dijon","commune":"Dijon"}},{"type":"Feature","geometry":{"type":"Point","coordinates":[5.046510158517134,47.319978784496186]},"properties":{"nature":"Coll\u00e8ge","codcomm":"210231","nom":"Coll\u00e8ge priv\u00e9 Saint-Michel","privepubli":"priv\u00e9","quartier":"Centre-Ville","nom_complet":"Coll\u00e8ge priv\u00e9 Saint-Michel, Dijon","commune":"Dijon"}},{"type":"Feature","geometry":{"type":"Point","coordinates":[5.0452824810431425,47.318577969357925]},"properties":{"nature":"Ecole maternelle","codcomm":"210231","nom":"Ecole maternelle Dampierre","privepubli":"public","quartier":"Centre-Ville","nom_complet":"Ecole maternelle Dampierre, Dijon","commune":"Dijon"}},{"type":"Feature","geometry":{"type":"Point","coordinates":[5.05917650689616,47.333964935509854]},"properties":{"nature":"Ecole maternelle","codcomm":"210231","nom":"Ecole maternelle York","privepubli":"public","quartier":"Gr\u00e9silles","nom_complet":"Ecole maternelle York, Dijon","commune":"Dijon"}},{"type":"Feature","geometry":{"type":"Point","coordinates":[5.069966157566907,47.31483391296231]},"properties":{"nature":"Universit\u00e9","codcomm":"210231","nom":"CROUS","privepubli":null,"quartier":"Universit\u00e9","nom_complet":"CROUS, Dijon","commune":"Dijon"}},{"type":"Feature","geometry":{"type":"Point","coordinates":[5.028888084901315,47.313944658288676]},"properties":{"nature":"Ecole \u00e9l\u00e9mentaire","codcomm":"210231","nom":"Ecole \u00e9l\u00e9mentaire Jean-Jaur\u00e8s","privepubli":"public","quartier":"Bourroches - Port du Canal - Valendons - Montagne Sainte-Anne","nom_complet":"Ecole \u00e9l\u00e9mentaire Jean-Jaur\u00e8s, Dijon","commune":"Dijon"}},{"type":"Feature","geometry":{"type":"Point","coordinates":[5.105592954801949,47.27852881738657]},"properties":{"nature":"Ecole \u00e9l\u00e9mentaire","codcomm":"210452","nom":"Ecole primaire Robert Chalandre","privepubli":"public","quartier":null,"nom_complet":"Ecole primaire Robert Chalandre, Neuilly-l\u00e8s-Dijon","commune":"Neuilly-Crimolois"}},{"type":"Feature","geometry":{"type":"Point","coordinates":[5.062976769713698,47.3305314239691]},"properties":{"nature":"Ecole maternelle","codcomm":"210231","nom":"Ecole maternelle Flammarion","privepubli":"public","quartier":"Gr\u00e9silles","nom_complet":"Ecole maternelle Flammarion, Dijon","commune":"Dijon"}},{"type":"Feature","geometry":{"type":"Point","coordinates":[5.014521393497015,47.32961164604236]},"properties":{"nature":"Ecole maternelle","codcomm":"210231","nom":"\u00c9cole maternelle priv\u00e9e Alix Providence","privepubli":"priv\u00e9","quartier":"Montchapet","nom_complet":"\u00c9cole maternelle priv\u00e9e Alix Providence, Dijon","commune":"Dijon"}},{"type":"Feature","geometry":{"type":"Point","coordinates":[5.062878258050715,47.33099641774631]},"properties":{"nature":"Ecole \u00e9l\u00e9mentaire","codcomm":"210231","nom":"Ecole \u00e9l\u00e9mentaire Flammarion","privepubli":"public","quartier":"Gr\u00e9silles","nom_complet":"Ecole \u00e9l\u00e9mentaire Flammarion, Dijon","commune":"Dijon"}},{"type":"Feature","geometry":{"type":"Point","coordinates":[5.107591623106692,47.318719457276124]},"properties":{"nature":"Coll\u00e8ge","codcomm":"210515","nom":"Coll\u00e8ge Jean Rostand","privepubli":"public","quartier":null,"nom_complet":"Coll\u00e8ge Jean Rostand, Quetigny","commune":"Quetigny"}},{"type":"Feature","geometry":{"type":"Point","coordinates":[5.0438386443794245,47.350541769244735]},"properties":{"nature":"Ecole \u00e9l\u00e9mentaire","codcomm":"210231","nom":"Ecole \u00e9l\u00e9mentaire C\u00f4teaux du Suzon","privepubli":"public","quartier":"Varennes - Toison d'Or - Joffre","nom_complet":"Ecole \u00e9l\u00e9mentaire C\u00f4teaux du Suzon, Dijon","commune":"Dijon"}},{"type":"Feature","geometry":{"type":"Point","coordinates":[5.026279341634216,47.31203130478107]},"properties":{"nature":"Ecole \u00e9l\u00e9mentaire","codcomm":"210231","nom":"Ecole \u00e9l\u00e9mentaire Paulette L\u00e9vy","privepubli":"public","quartier":"Bourroches - Port du Canal - Valendons - Montagne Sainte-Anne","nom_complet":"Ecole \u00e9l\u00e9mentaire Paulette L\u00e9vy, Dijon","commune":"Dijon"}},{"type":"Feature","geometry":null,"properties":{"nature":"Lyc\u00e9e","codcomm":"210231","nom":"Lyc\u00e9e Gustave Eiffel","privepubli":"public","quartier":"Gr\u00e9silles","nom_complet":"Lyc\u00e9e Gustave Eiffel, Dijon","commune":"Dijon","geo_point_2d":null}},{"type":"Feature","geometry":{"type":"Point","coordinates":[5.045282484445211,47.318577970727766]},"properties":{"nature":"Ecole \u00e9l\u00e9mentaire","codcomm":"210231","nom":"Ecole \u00e9l\u00e9mentaire Dampierre","privepubli":"public","quartier":"Centre-Ville","nom_complet":"Ecole \u00e9l\u00e9mentaire Dampierre, Dijon","commune":"Dijon"}},{"type":"Feature","geometry":{"type":"Point","coordinates":[5.035780300725401,47.3117247652888]},"properties":{"nature":"Lyc\u00e9e","codcomm":"210231","nom":"Lyc\u00e9e le Castel","privepubli":"public","quartier":"Chevreul - Parc","nom_complet":"Lyc\u00e9e le Castel, Dijon","commune":"Dijon"}},{"type":"Feature","geometry":{"type":"Point","coordinates":[5.043575013893767,47.346342022391944]},"properties":{"nature":"Ecole maternelle","codcomm":"210231","nom":"\u00c9cole maternelle priv\u00e9e Notre-Dame","privepubli":"priv\u00e9","quartier":"Varennes - Toison d'Or - Joffre","nom_complet":"\u00c9cole maternelle priv\u00e9e Notre-Dame, Dijon","commune":"Dijon"}},{"type":"Feature","geometry":{"type":"Point","coordinates":[5.049811136907778,47.33006731852511]},"properties":{"nature":"Ecole sp\u00e9cialis\u00e9e","codcomm":"210231","nom":"Ecole nationale des greffes (ENG)","privepubli":null,"quartier":"Maladi\u00e8re - Drapeau - Clemenceau","nom_complet":"Ecole nationale des greffes (ENG), Dijon","commune":"Dijon"}},{"type":"Feature","geometry":{"type":"Point","coordinates":[5.066800094862719,47.31758135880253]},"properties":{"nature":"Universit\u00e9","codcomm":"210231","nom":"ESTP","privepubli":null,"quartier":"Universit\u00e9","nom_complet":"Ecole sp\u00e9ciale des travaux publics, Dijon","commune":"Dijon"}},{"type":"Feature","geometry":{"type":"Point","coordinates":[5.0078045113587235,47.299932042223524]},"properties":{"nature":"Groupe scolaire","codcomm":"210166","nom":"Groupe scolaire des Violettes","privepubli":"public","quartier":null,"nom_complet":"Groupe scolaire des Violettes, Chen\u00f4ve","commune":"Chen\u00f4ve"}},{"type":"Feature","geometry":{"type":"Point","coordinates":[5.008863722809369,47.297250906653765]},"properties":{"nature":"Groupe scolaire","codcomm":"210166","nom":"Groupe scolaire L\u00e9on Gambetta","privepubli":"public","quartier":null,"nom_complet":"Groupe scolaire L\u00e9on Gambetta, Chen\u00f4ve","commune":"Chen\u00f4ve"}},{"type":"Feature","geometry":{"type":"Point","coordinates":[5.01310224150077,47.300694876073784]},"properties":{"nature":"Groupe scolaire","codcomm":"210166","nom":"Groupe scolaire En St Jacques","privepubli":"public","quartier":null,"nom_complet":"Groupe scolaire En St Jacques, Chen\u00f4ve","commune":"Chen\u00f4ve"}},{"type":"Feature","geometry":{"type":"Point","coordinates":[5.068209253582738,47.288894559341635]},"properties":{"nature":"Groupe scolaire","codcomm":"210355","nom":"Groupe scolaire Roland Carraz","privepubli":"public","quartier":null,"nom_complet":"Groupe scolaire Roland Carraz, Longvic","commune":"Longvic"}},{"type":"Feature","geometry":{"type":"Point","coordinates":[5.111355796498076,47.31002538945559]},"properties":{"nature":"Groupe scolaire","codcomm":"210515","nom":"Groupe scolaire des Aiguisons","privepubli":"public","quartier":null,"nom_complet":"Groupe scolaire des Aiguisons, Quetigny","commune":"Quetigny"}},{"type":"Feature","geometry":{"type":"Point","coordinates":[5.03243386203188,47.29389603616108]},"properties":{"nature":"AFPA","codcomm":"210355","nom":"Institut de formation logistique et manutention","privepubli":null,"quartier":null,"nom_complet":"Institut de formation logistique et manutention, Longvic","commune":"Longvic"}},{"type":"Feature","geometry":{"type":"Point","coordinates":[4.996930140480324,47.316714884689674]},"properties":{"nature":"Lyc\u00e9e","codcomm":"210231","nom":"Lyc\u00e9e Professionnel des Marcs d'Or","privepubli":"public","quartier":"Fontaine d'Ouche - Faubourg Raines - Larrey - Motte Giron","nom_complet":"Lyc\u00e9e Professionnel des Marcs d'Or, Dijon","commune":"Dijon"}},{"type":"Feature","geometry":{"type":"Point","coordinates":[5.016893425776308,47.33004126997569]},"properties":{"nature":"Lyc\u00e9e","codcomm":"210231","nom":"Lyc\u00e9e priv\u00e9 St-B\u00e9nigne","privepubli":"priv\u00e9","quartier":"Montchapet","nom_complet":"Lyc\u00e9e priv\u00e9 St-B\u00e9nigne, Dijon","commune":"Dijon"}},{"type":"Feature","geometry":{"type":"Point","coordinates":[5.060259408447326,47.324412773083985]},"properties":{"nature":"H\u00e9bergement pour \u00e9tudiants","codcomm":"210231","nom":"Foyer priv\u00e9 St-Dominique","privepubli":null,"quartier":"Universit\u00e9","nom_complet":"Foyer priv\u00e9 St-Dominique, Dijon","commune":"Dijon"}},{"type":"Feature","geometry":{"type":"Point","coordinates":[4.999651395671877,47.32316938580982]},"properties":{"nature":"Ecole maternelle","codcomm":"210231","nom":"Ecole maternelle Anjou","privepubli":"public","quartier":"Fontaine d'Ouche - Faubourg Raines - Larrey - Motte Giron","nom_complet":"Ecole maternelle Anjou, Dijon","commune":"Dijon"}},{"type":"Feature","geometry":{"type":"Point","coordinates":[5.00367707543649,47.32153834821801]},"properties":{"nature":"Ecole maternelle","codcomm":"210231","nom":"Ecole maternelle Alsace","privepubli":"public","quartier":"Fontaine d'Ouche - Faubourg Raines - Larrey - Motte Giron","nom_complet":"Ecole maternelle Alsace, Dijon","commune":"Dijon"}},{"type":"Feature","geometry":{"type":"Point","coordinates":[5.050665571412781,47.32131302887796]},"properties":{"nature":"Lyc\u00e9e","codcomm":"210231","nom":"Lyc\u00e9e Simone Weil","privepubli":"public","quartier":"Centre-Ville","nom_complet":"Lyc\u00e9e Simone Weil, Dijon","commune":"Dijon"}},{"type":"Feature","geometry":{"type":"Point","coordinates":[4.999668469681409,47.31398039337731]},"properties":{"nature":"Ecole \u00e9l\u00e9mentaire","codcomm":"210231","nom":"Ecole \u00e9l\u00e9mentaire de plein air","privepubli":"public","quartier":"Fontaine d'Ouche - Faubourg Raines - Larrey - Motte Giron","nom_complet":"Ecole \u00e9l\u00e9mentaire de plein air, Dijon","commune":"Dijon"}},{"type":"Feature","geometry":{"type":"Point","coordinates":[5.075929645132346,47.311023288805806]},"properties":{"nature":"Universit\u00e9","codcomm":"210231","nom":"Facult\u00e9 des Sciences du Sports - UFRSTAPS - SUAPS","privepubli":null,"quartier":"Universit\u00e9","nom_complet":"Facult\u00e9 des Sciences du Sports - UFRSTAPS - SUAPS, Dijon","commune":"Dijon"}},{"type":"Feature","geometry":{"type":"Point","coordinates":[5.017915104911543,47.32979699108156]},"properties":{"nature":"Coll\u00e8ge","codcomm":"210231","nom":"Coll\u00e8ge priv\u00e9 Saint Fran\u00e7ois de Sales","privepubli":"priv\u00e9","quartier":"Montchapet","nom_complet":"Coll\u00e8ge priv\u00e9 Saint Fran\u00e7ois de Sales, Dijon","commune":"Dijon"}},{"type":"Feature","geometry":{"type":"Point","coordinates":[5.043575013893767,47.346342022391944]},"properties":{"nature":"Ecole \u00e9l\u00e9mentaire","codcomm":"210231","nom":"\u00c9cole \u00e9l\u00e9mentaire priv\u00e9e Notre-Dame","privepubli":"priv\u00e9","quartier":"Varennes - Toison d'Or - Joffre","nom_complet":"\u00c9cole \u00e9l\u00e9mentaire priv\u00e9e Notre-Dame, Dijon","commune":"Dijon"}},{"type":"Feature","geometry":{"type":"Point","coordinates":[5.006276394044555,47.316279505212826]},"properties":{"nature":"Ecole \u00e9l\u00e9mentaire","codcomm":"210231","nom":"Ecole \u00e9l\u00e9mentaire Jean-Baptiste Lallemand","privepubli":"public","quartier":"Fontaine d'Ouche - Faubourg Raines - Larrey - Motte Giron","nom_complet":"Ecole \u00e9l\u00e9mentaire Jean-Baptiste Lallemand, Dijon","commune":"Dijon"}},{"type":"Feature","geometry":{"type":"Point","coordinates":[5.0472947615091694,47.260255296424226]},"properties":{"nature":"Ecole maternelle","codcomm":"210263","nom":"Ecole maternelle","privepubli":"public","quartier":null,"nom_complet":"Ecole maternelle, Fenay","commune":"Fenay"}},{"type":"Feature","geometry":{"type":"Point","coordinates":[5.04330112650609,47.3018933333982]},"properties":{"nature":"Ecole \u00e9l\u00e9mentaire","codcomm":"210231","nom":"Ecole \u00e9l\u00e9mentaire Colombi\u00e8re","privepubli":"public","quartier":"Chevreul - Parc","nom_complet":"Ecole \u00e9l\u00e9mentaire Colombi\u00e8re, Dijon","commune":"Dijon"}},{"type":"Feature","geometry":{"type":"Point","coordinates":[5.038100527977367,47.326163968416694]},"properties":{"nature":"PIJ et CIO","codcomm":"210231","nom":"Dispositif d'insertion des Jeunes et service acad\u00e9mique d'information et d'orientation - ONISEP (Rectorat de Dijon)","privepubli":null,"quartier":"Centre-Ville","nom_complet":"Dispositif d'insertion des Jeunes et service acad\u00e9mique d'information et d'orientation - ONISEP (Rectorat de Dijon), Dijon","commune":"Dijon"}},{"type":"Feature","geometry":{"type":"Point","coordinates":[5.01993195962026,47.332833694735235]},"properties":{"nature":"Ecole maternelle","codcomm":"210231","nom":"Ecole maternelle Victor Hugo","privepubli":"public","quartier":"Montchapet","nom_complet":"Ecole maternelle Victor Hugo, Dijon","commune":"Dijon"}},{"type":"Feature","geometry":{"type":"Point","coordinates":[5.0438386443794245,47.350541769244735]},"properties":{"nature":"Ecole maternelle","codcomm":"210231","nom":"Ecole maternelle C\u00f4teaux du Suzon","privepubli":"public","quartier":"Varennes - Toison d'Or - Joffre","nom_complet":"Ecole maternelle C\u00f4teaux du Suzon, Dijon","commune":"Dijon"}},{"type":"Feature","geometry":{"type":"Point","coordinates":[4.988643412569226,47.26993955796702]},"properties":{"nature":"Ecole \u00e9l\u00e9mentaire","codcomm":"210390","nom":"Ecole \u00e9l\u00e9mentaire Paul Colnet","privepubli":"public","quartier":null,"nom_complet":"Ecole \u00e9l\u00e9mentaire Paul Colnet, Marsannay-la-C\u00f4te","commune":"Marsannay-la-C\u00f4te"}},{"type":"Feature","geometry":{"type":"Point","coordinates":[5.079067507788786,47.33473648625857]},"properties":{"nature":"Groupe scolaire","codcomm":"210540","nom":"Groupe scolaire La Fleuri\u00e9e","privepubli":"public","quartier":null,"nom_complet":"Groupe scolaire La Fleuri\u00e9e, Saint-Apollinaire","commune":"Saint-Apollinaire"}},{"type":"Feature","geometry":{"type":"Point","coordinates":[5.069168017322559,47.317514010968814]},"properties":{"nature":"Autres","codcomm":"210231","nom":"Centre de Microbiologie du sol et de l'Environnement","privepubli":null,"quartier":"Universit\u00e9","nom_complet":"Centre de Microbiologie du sol et de l'Environnement, Dijon","commune":"Dijon"}},{"type":"Feature","geometry":{"type":"Point","coordinates":[5.117058680542447,47.31534988654726]},"properties":{"nature":"Autres","codcomm":"210515","nom":"Maison familiale d'apprentissage rural","privepubli":null,"quartier":null,"nom_complet":"Maison familiale d'apprentissage rural, Quetigny","commune":"Quetigny"}},{"type":"Feature","geometry":{"type":"Point","coordinates":[4.992591408958935,47.34178053906383]},"properties":{"nature":"Groupe scolaire","codcomm":"210617","nom":"Groupe scolaire Elsa Triolet","privepubli":"public","quartier":null,"nom_complet":"Groupe scolaire Elsa Triolet, Talant","commune":"Talant"}},{"type":"Feature","geometry":{"type":"Point","coordinates":[5.01269808188597,47.33761783836093]},"properties":{"nature":"Groupe scolaire","codcomm":"210617","nom":"Groupe scolaire Paul Langevin","privepubli":"public","quartier":null,"nom_complet":"Groupe scolaire Paul Langevin, Talant","commune":"Talant"}},{"type":"Feature","geometry":{"type":"Point","coordinates":[5.020489771547731,47.34189213526993]},"properties":{"nature":"Groupe scolaire","codcomm":"210278","nom":"Groupe scolaire des Carrois","privepubli":"public","quartier":null,"nom_complet":"Groupe scolaire des Carrois, Fontaine-l\u00e8s-Dijon","commune":"Fontaine-l\u00e8s-Dijon"}},{"type":"Feature","geometry":{"type":"Point","coordinates":[5.106669366893889,47.27887273426503]},"properties":{"nature":"Ecole maternelle","codcomm":"210452","nom":"Ecole maternelle","privepubli":"public","quartier":null,"nom_complet":"Ecole maternelle, Neuilly-l\u00e8s-Dijon","commune":"Neuilly-Crimolois"}},{"type":"Feature","geometry":{"type":"Point","coordinates":[5.042259166186764,47.35647509809003]},"properties":{"nature":"CFA","codcomm":"210231","nom":"Saint B\u00e9nigne Formation","privepubli":null,"quartier":"Varennes - Toison d'Or - Joffre","nom_complet":"Saint B\u00e9nigne Formation, Dijon","commune":"Dijon"}},{"type":"Feature","geometry":{"type":"Point","coordinates":[5.016381274597267,47.32920084771487]},"properties":{"nature":"Lyc\u00e9e","codcomm":"210231","nom":"Lyc\u00e9e priv\u00e9 Notre-Dame","privepubli":"priv\u00e9","quartier":"Montchapet","nom_complet":"Lyc\u00e9e priv\u00e9 Notre-Dame, Dijon","commune":"Dijon"}},{"type":"Feature","geometry":{"type":"Point","coordinates":[5.035415117933208,47.307603053735896]},"properties":{"nature":"Ecole maternelle","codcomm":"210231","nom":"Ecole maternelle du Petit-Bernard","privepubli":"public","quartier":"Chevreul - Parc","nom_complet":"Ecole maternelle du Petit-Bernard, Dijon","commune":"Dijon"}},{"type":"Feature","geometry":{"type":"Point","coordinates":[5.0700350839142505,47.3143468210085]},"properties":{"nature":"Restaurant pour \u00e9tudiants","codcomm":"210231","nom":"Restaurant universitaire Montmuzard","privepubli":null,"quartier":"Universit\u00e9","nom_complet":"Restaurant universitaire Montmuzard, Dijon","commune":"Dijon"}},{"type":"Feature","geometry":{"type":"Point","coordinates":[5.069112509650577,47.31513003612415]},"properties":{"nature":"Universit\u00e9","codcomm":"210231","nom":"Institut Universitaire de la Vigne et du Vin Jules Guyot","privepubli":null,"quartier":"Universit\u00e9","nom_complet":"Institut Universitaire de la Vigne et du Vin Jules Guyot, Dijon","commune":"Dijon"}},{"type":"Feature","geometry":{"type":"Point","coordinates":[4.995971582548842,47.322681530850076]},"properties":{"nature":"Ecole maternelle","codcomm":"210231","nom":"Ecole maternelle Buffon","privepubli":"public","quartier":"Fontaine d'Ouche - Faubourg Raines - Larrey - Motte Giron","nom_complet":"Ecole maternelle Buffon, Dijon","commune":"Dijon"}},{"type":"Feature","geometry":{"type":"Point","coordinates":[5.063061721303839,47.32608963130196]},"properties":{"nature":"Ecole \u00e9l\u00e9mentaire","codcomm":"210231","nom":"Ecole \u00e9l\u00e9mentaire Montmuzard","privepubli":"public","quartier":"Universit\u00e9","nom_complet":"Ecole \u00e9l\u00e9mentaire Montmuzard, Dijon","commune":"Dijon"}},{"type":"Feature","geometry":{"type":"Point","coordinates":[5.0712973045713206,47.32213914541352]},"properties":{"nature":"Ecole sp\u00e9cialis\u00e9e","codcomm":"210231","nom":"Ecole des cadres infirmiers et sages-femmes-m\u00e9decine du travail","privepubli":null,"quartier":"Universit\u00e9","nom_complet":"Ecole des cadres infirmiers et sages-femmes-m\u00e9decine du travail, Dijon","commune":"Dijon"}},{"type":"Feature","geometry":{"type":"Point","coordinates":[5.074124758725618,47.312319066797485]},"properties":{"nature":"Grande \u00e9cole","codcomm":"210231","nom":"ESIREM","privepubli":null,"quartier":"Universit\u00e9","nom_complet":"ESIREM, Dijon","commune":"Dijon"}},{"type":"Feature","geometry":{"type":"Point","coordinates":[5.069232419533863,47.3108234066568]},"properties":{"nature":"Universit\u00e9","codcomm":"210231","nom":"I.U.T. Dijon - Auxerre","privepubli":null,"quartier":"Universit\u00e9","nom_complet":"I.U.T. Dijon - Auxerre, Dijon","commune":"Dijon"}},{"type":"Feature","geometry":{"type":"Point","coordinates":[5.128646195395126,47.30307684761726]},"properties":{"nature":"Coll\u00e8ge","codcomm":"210171","nom":"Coll\u00e8ge Camille Claudel","privepubli":"public","quartier":null,"nom_complet":"Coll\u00e8ge Camille Claudel, Chevigny-Saint-Sauveur","commune":"Chevigny-Saint-Sauveur"}},{"type":"Feature","geometry":{"type":"Point","coordinates":[5.064168564610401,47.312686597257795]},"properties":{"nature":"Universit\u00e9","codcomm":"210231","nom":"Maison des Sciences de l'Homme","privepubli":null,"quartier":"Universit\u00e9","nom_complet":"Maison des Sciences de l'Homme, Dijon","commune":"Dijon"}},{"type":"Feature","geometry":{"type":"Point","coordinates":[5.060020226169266,47.32459991027747]},"properties":{"nature":"Ecole \u00e9l\u00e9mentaire","codcomm":"210231","nom":"\u00c9cole \u00e9l\u00e9mentaire priv\u00e9e Saint Dominique","privepubli":"priv\u00e9","quartier":"Universit\u00e9","nom_complet":"\u00c9cole \u00e9l\u00e9mentaire priv\u00e9e Saint Dominique, Dijon","commune":"Dijon"}},{"type":"Feature","geometry":{"type":"Point","coordinates":[5.07236833717408,47.30931208692279]},"properties":{"nature":"H\u00e9bergement pour \u00e9tudiants","codcomm":"210231","nom":"R\u00e9sidence universitaire Rimbaud","privepubli":null,"quartier":"Universit\u00e9","nom_complet":"R\u00e9sidence universitaire Rimbaud, Dijon","commune":"Dijon"}},{"type":"Feature","geometry":{"type":"Point","coordinates":[4.9700182496261975,47.339029230465684]},"properties":{"nature":"Ecole maternelle","codcomm":"210485","nom":"Ecole maternelle Pasteur","privepubli":"public","quartier":null,"nom_complet":"Ecole maternelle Pasteur, Plombi\u00e8res-l\u00e8s-Dijon","commune":"Plombi\u00e8res-l\u00e8s-Dijon"}},{"type":"Feature","geometry":{"type":"Point","coordinates":[5.0505386237638,47.33624205530334]},"properties":{"nature":"Ecole maternelle","codcomm":"210231","nom":"Ecole maternelle Maladi\u00e8re","privepubli":"public","quartier":"Maladi\u00e8re - Drapeau - Clemenceau","nom_complet":"Ecole maternelle Maladi\u00e8re, Dijon","commune":"Dijon"}},{"type":"Feature","geometry":{"type":"Point","coordinates":[5.050921485317926,47.31038970509862]},"properties":{"nature":"CFA","codcomm":"210231","nom":"CFA Les Arcades","privepubli":null,"quartier":"Chevreul - Parc","nom_complet":"CFA Les Arcades, Dijon","commune":"Dijon"}},{"type":"Feature","geometry":{"type":"Point","coordinates":[5.1274009478720535,47.30324663491748]},"properties":{"nature":"Lyc\u00e9e","codcomm":"210171","nom":"Lyc\u00e9e Jean-Marc Boivin","privepubli":"public","quartier":null,"nom_complet":"Lyc\u00e9e Jean-Marc Boivin, Chevigny-Saint-Sauveur","commune":"Chevigny-Saint-Sauveur"}},{"type":"Feature","geometry":{"type":"Point","coordinates":[5.050817110603166,47.32048807426945]},"properties":{"nature":"Ecole \u00e9l\u00e9mentaire","codcomm":"210231","nom":"Ecole \u00e9l\u00e9mentaire priv\u00e9e Saint Joseph","privepubli":"priv\u00e9","quartier":"Centre-Ville","nom_complet":"Ecole \u00e9l\u00e9mentaire priv\u00e9e Saint Joseph, Dijon","commune":"Dijon"}},{"type":"Feature","geometry":{"type":"Point","coordinates":[5.111379831272365,47.31729075598378]},"properties":{"nature":"Ecole maternelle","codcomm":"210515","nom":"Ecole maternelle Nelson Mandela","privepubli":"public","quartier":null,"nom_complet":"Ecole maternelle Nelson Mandela, Quetigny","commune":"Quetigny"}},{"type":"Feature","geometry":{"type":"Point","coordinates":[5.079680587242193,47.31177966129452]},"properties":{"nature":"H\u00e9bergement pour \u00e9tudiants","codcomm":"210231","nom":"R\u00e9sidence universitaire Latitudes","privepubli":null,"quartier":"Universit\u00e9","nom_complet":"R\u00e9sidence universitaire Latitudes, Dijon","commune":"Dijon"}},{"type":"Feature","geometry":{"type":"Point","coordinates":[4.988643408210433,47.26993955564192]},"properties":{"nature":"Ecole maternelle","codcomm":"210390","nom":"Ecole maternelle Paul Colnet","privepubli":"public","quartier":null,"nom_complet":"Ecole maternelle Paul Colnet, Marsannay-la-C\u00f4te","commune":"Marsannay-la-C\u00f4te"}},{"type":"Feature","geometry":{"type":"Point","coordinates":[5.0016475284089985,47.279847963851594]},"properties":{"nature":"Ecole maternelle","codcomm":"210390","nom":"Ecole maternelle La Porte d'Or","privepubli":"public","quartier":null,"nom_complet":"Ecole maternelle La Porte d'Or, Marsannay-la-C\u00f4te","commune":"Marsannay-la-C\u00f4te"}},{"type":"Feature","geometry":{"type":"Point","coordinates":[5.040410629141285,47.31820027297777]},"properties":{"nature":"H\u00e9bergement pour \u00e9tudiants","codcomm":"210231","nom":"Foyer priv\u00e9 Lacordaire","privepubli":null,"quartier":"Centre-Ville","nom_complet":"Foyer priv\u00e9 Lacordaire, Dijon","commune":"Dijon"}},{"type":"Feature","geometry":{"type":"Point","coordinates":[5.030297700370971,47.326554613494295]},"properties":{"nature":"Grande \u00e9cole","codcomm":"210231","nom":"Ecole de Sciences politiques","privepubli":null,"quartier":"Montchapet","nom_complet":"Ecole de Sciences politiques, Dijon","commune":"Dijon"}},{"type":"Feature","geometry":{"type":"Point","coordinates":[5.070135733863393,47.32215402931225]},"properties":{"nature":"Ecole sp\u00e9cialis\u00e9e","codcomm":"210231","nom":"Internat \u00e9l\u00e8ves  sages-femmes","privepubli":null,"quartier":"Universit\u00e9","nom_complet":"Internat \u00e9l\u00e8ves  sages-femmes, Dijon","commune":"Dijon"}},{"type":"Feature","geometry":{"type":"Point","coordinates":[5.132360149457167,47.30503832671814]},"properties":{"nature":"Ecole maternelle","codcomm":"210171","nom":"Maternelle Henri Marc","privepubli":"public","quartier":null,"nom_complet":"Maternelle Henri Marc, Chevigny-Saint-Sauveur","commune":"Chevigny-Saint-Sauveur"}},{"type":"Feature","geometry":{"type":"Point","coordinates":[5.172818339641681,47.276489727392665]},"properties":{"nature":"Ecole \u00e9l\u00e9mentaire","codcomm":"210370","nom":"Ecole \u00e9l\u00e9mentaire","privepubli":"public","quartier":null,"nom_complet":"Ecole \u00e9l\u00e9mentaire, Magny-sur-Tille","commune":"Magny-sur-Tille"}},{"type":"Feature","geometry":{"type":"Point","coordinates":[5.066371297266819,47.319573131796076]},"properties":{"nature":"Universit\u00e9","codcomm":"210231","nom":"Facult\u00e9s de M\u00e9decine et de Pharmacie","privepubli":null,"quartier":"Universit\u00e9","nom_complet":"Facult\u00e9s de M\u00e9decine et de Pharmacie, Dijon","commune":"Dijon"}},{"type":"Feature","geometry":{"type":"Point","coordinates":[5.049072291901917,47.34266752737598]},"properties":{"nature":"Ecole \u00e9l\u00e9mentaire","codcomm":"210231","nom":"Ecole \u00e9l\u00e9mentaire Beaumarchais","privepubli":"public","quartier":"Varennes - Toison d'Or - Joffre","nom_complet":"Ecole \u00e9l\u00e9mentaire Beaumarchais, Dijon","commune":"Dijon"}},{"type":"Feature","geometry":{"type":"Point","coordinates":[5.0935224530186485,47.309819269760396]},"properties":{"nature":"AFPA","codcomm":"210515","nom":"AFPA","privepubli":null,"quartier":null,"nom_complet":"AFPA, Quetigny","commune":"Quetigny"}},{"type":"Feature","geometry":{"type":"Point","coordinates":[5.028888084901315,47.313944658288676]},"properties":{"nature":"Ecole maternelle","codcomm":"210231","nom":"Ecole maternelle Jean-Jaur\u00e8s","privepubli":"public","quartier":"Bourroches - Port du Canal - Valendons - Montagne Sainte-Anne","nom_complet":"Ecole maternelle Jean-Jaur\u00e8s, Dijon","commune":"Dijon"}},{"type":"Feature","geometry":{"type":"Point","coordinates":[5.0464181475118535,47.322783459435676]},"properties":{"nature":"Ecole sp\u00e9cialis\u00e9e","codcomm":"210231","nom":"Ecole de notariat","privepubli":null,"quartier":"Centre-Ville","nom_complet":"Ecole de notariat, Dijon","commune":"Dijon"}},{"type":"Feature","geometry":{"type":"Point","coordinates":[5.032883647207079,47.32040580719719]},"properties":{"nature":"Coll\u00e8ge","codcomm":"210231","nom":"Coll\u00e9ge Marcelle Pard\u00e9","privepubli":"public","quartier":"Centre-Ville","nom_complet":"Coll\u00e9ge Marcelle Pard\u00e9, Dijon","commune":"Dijon"}},{"type":"Feature","geometry":{"type":"Point","coordinates":[5.052049453136189,47.29854539016848]},"properties":{"nature":"Ecole \u00e9l\u00e9mentaire","codcomm":"210355","nom":"Ecole \u00e9l\u00e9mentaire L\u00e9on Blum","privepubli":"public","quartier":null,"nom_complet":"Ecole \u00e9l\u00e9mentaire L\u00e9on Blum, Longvic","commune":"Longvic"}},{"type":"Feature","geometry":{"type":"Point","coordinates":[5.032481222252876,47.32228040816533]},"properties":{"nature":"Ecole \u00e9l\u00e9mentaire","codcomm":"210231","nom":"Ecole \u00e9l\u00e9mentaire Darcy Mauchauss\u00e9","privepubli":"public","quartier":"Centre-Ville","nom_complet":"Ecole \u00e9l\u00e9mentaire Darcy Mauchauss\u00e9, Dijon","commune":"Dijon"}},{"type":"Feature","geometry":{"type":"Point","coordinates":[5.057696504810043,47.338205295190384]},"properties":{"nature":"Universit\u00e9","codcomm":"210231","nom":"CESAM","privepubli":null,"quartier":"Varennes - Toison d'Or - Joffre","nom_complet":"CESAM, Dijon","commune":"Dijon"}},{"type":"Feature","geometry":{"type":"Point","coordinates":[5.01993195962026,47.332833694735235]},"properties":{"nature":"Ecole \u00e9l\u00e9mentaire","codcomm":"210231","nom":"Ecole \u00e9l\u00e9mentaire Victor Hugo","privepubli":"public","quartier":"Montchapet","nom_complet":"Ecole \u00e9l\u00e9mentaire Victor Hugo, Dijon","commune":"Dijon"}},{"type":"Feature","geometry":{"type":"Point","coordinates":[5.050576961558885,47.32660815073395]},"properties":{"nature":"Ecole maternelle","codcomm":"210231","nom":"Ecole maternelle Clemenceau","privepubli":"public","quartier":"Maladi\u00e8re - Drapeau - Clemenceau","nom_complet":"Ecole maternelle Clemenceau, Dijon","commune":"Dijon"}},{"type":"Feature","geometry":{"type":"Point","coordinates":[5.074892986809316,47.31791417376128]},"properties":{"nature":"Ecole sp\u00e9cialis\u00e9e","codcomm":"210231","nom":"Les Compagnons du Devoir du tour de France","privepubli":null,"quartier":"Universit\u00e9","nom_complet":"Les Compagnons du Devoir du tour de France, Dijon","commune":"Dijon"}},{"type":"Feature","geometry":{"type":"Point","coordinates":[5.057992679047499,47.314332424721734]},"properties":{"nature":"Ecole maternelle","codcomm":"210231","nom":"Ecole maternelle Petites Roches","privepubli":"public","quartier":"Universit\u00e9","nom_complet":"Ecole maternelle Petites Roches, Dijon","commune":"Dijon"}},{"type":"Feature","geometry":{"type":"Point","coordinates":[5.074762371403908,47.319645217281256]},"properties":{"nature":"Ecole sp\u00e9cialis\u00e9e","codcomm":"210231","nom":"Institut de formation en masso-kin\u00e9sith\u00e9rapie","privepubli":null,"quartier":"Universit\u00e9","nom_complet":"Institut de formation en masso-kin\u00e9sith\u00e9rapie, Dijon","commune":"Dijon"}},{"type":"Feature","geometry":{"type":"Point","coordinates":[5.0645989733530685,47.31374144116828]},"properties":{"nature":"Universit\u00e9","codcomm":"210231","nom":"UFR Litt\u00e9raires","privepubli":null,"quartier":"Universit\u00e9","nom_complet":"UFR Litt\u00e9raires, Dijon","commune":"Dijon"}},{"type":"Feature","geometry":{"type":"Point","coordinates":[4.999538859289497,47.35197502807609]},"properties":{"nature":"Ecole maternelle","codcomm":"210223","nom":"Ecole maternelle Fran\u00e7ois Monot","privepubli":"public","quartier":null,"nom_complet":"Ecole maternelle Fran\u00e7ois Monot, Daix","commune":"Daix"}},{"type":"Feature","geometry":{"type":"Point","coordinates":[5.04307933499165,47.31895804446752]},"properties":{"nature":"Universit\u00e9","codcomm":"210231","nom":"Facult\u00e9 des Lettres - Ancien coll\u00e8ge des Godrans","privepubli":null,"quartier":"Centre-Ville","nom_complet":"Facult\u00e9 des Lettres - Ancien coll\u00e8ge des Godrans, Dijon","commune":"Dijon"}},{"type":"Feature","geometry":{"type":"Point","coordinates":[5.0660161112515185,47.31216797100254]},"properties":{"nature":"Universit\u00e9","codcomm":"210231","nom":"P\u00f4le Acquisition Apprentissage Formation Education (AAFE)","privepubli":null,"quartier":"Universit\u00e9","nom_complet":"P\u00f4le Acquisition Apprentissage Formation Education (AAFE), Dijon","commune":"Dijon"}},{"type":"Feature","geometry":{"type":"Point","coordinates":[5.017900803329263,47.307000335050205]},"properties":{"nature":"Coll\u00e8ge","codcomm":"210231","nom":"Coll\u00e8ge priv\u00e9 Saint-B\u00e9nigne (Site du Pommard)","privepubli":"priv\u00e9","quartier":"Bourroches - Port du Canal - Valendons - Montagne Sainte-Anne","nom_complet":"Coll\u00e8ge priv\u00e9 Saint-B\u00e9nigne (Site du Pommard), Dijon","commune":"Dijon"}},{"type":"Feature","geometry":{"type":"Point","coordinates":[5.043991123178865,47.32611780223417]},"properties":{"nature":"Ecole \u00e9l\u00e9mentaire","codcomm":"210231","nom":"Ecole \u00e9l\u00e9mentaire du Nord","privepubli":"public","quartier":"Centre-Ville","nom_complet":"Ecole \u00e9l\u00e9mentaire du Nord, Dijon","commune":"Dijon"}},{"type":"Feature","geometry":{"type":"Point","coordinates":[5.0098725216033015,47.2909679175027]},"properties":{"nature":"GRETA","codcomm":"210166","nom":"GRETA Dijon-Sud","privepubli":null,"quartier":null,"nom_complet":"GRETA Dijon-Sud, Chen\u00f4ve","commune":"Chen\u00f4ve"}},{"type":"Feature","geometry":{"type":"Point","coordinates":[5.068116342793218,47.313906712556246]},"properties":{"nature":"Restaurant pour \u00e9tudiants","codcomm":"210231","nom":"Restaurant universitaire le Lamartine","privepubli":null,"quartier":"Universit\u00e9","nom_complet":"Restaurant universitaire le Lamartine, Dijon","commune":"Dijon"}},{"type":"Feature","geometry":{"type":"Point","coordinates":[5.069055669999917,47.31849953462939]},"properties":{"nature":"H\u00e9bergement pour \u00e9tudiants","codcomm":"210231","nom":"R\u00e9sidence IRTESS","privepubli":null,"quartier":"Universit\u00e9","nom_complet":"R\u00e9sidence IRTESS, Dijon","commune":"Dijon"}},{"type":"Feature","geometry":{"type":"Point","coordinates":[5.0070083359883375,47.29144903821889]},"properties":{"nature":"Coll\u00e8ge","codcomm":"210166","nom":"Coll\u00e8ge Edouard Herriot","privepubli":"public","quartier":null,"nom_complet":"Coll\u00e8ge Edouard Herriot, Chen\u00f4ve","commune":"Chen\u00f4ve"}},{"type":"Feature","geometry":{"type":"Point","coordinates":[5.002849327410095,47.29600431061945]},"properties":{"nature":"Coll\u00e8ge","codcomm":"210166","nom":"Coll\u00e8ge du Chapitre","privepubli":"public","quartier":null,"nom_complet":"Coll\u00e8ge du Chapitre, Chen\u00f4ve","commune":"Chen\u00f4ve"}},{"type":"Feature","geometry":{"type":"Point","coordinates":[5.00154777703888,47.317940380468904]},"properties":{"nature":"Ecole \u00e9l\u00e9mentaire","codcomm":"210231","nom":"Ecole \u00e9l\u00e9mentaire Colette","privepubli":"public","quartier":"Fontaine d'Ouche - Faubourg Raines - Larrey - Motte Giron","nom_complet":"Ecole \u00e9l\u00e9mentaire Colette, Dijon","commune":"Dijon"}},{"type":"Feature","geometry":{"type":"Point","coordinates":[5.025218501505744,47.330014976552135]},"properties":{"nature":"Ecole \u00e9l\u00e9mentaire","codcomm":"210231","nom":"\u00c9cole \u00e9l\u00e9mentaire priv\u00e9e Saint Fran\u00e7ois de Sales","privepubli":"priv\u00e9","quartier":"Montchapet","nom_complet":"\u00c9cole \u00e9l\u00e9mentaire priv\u00e9e Saint Fran\u00e7ois de Sales, Dijon","commune":"Dijon"}},{"type":"Feature","geometry":{"type":"Point","coordinates":[5.051477018546217,47.313744106316946]},"properties":{"nature":"Ecole \u00e9l\u00e9mentaire","codcomm":"210231","nom":"Ecole \u00e9l\u00e9mentaire Voltaire","privepubli":"public","quartier":"Universit\u00e9","nom_complet":"Ecole \u00e9l\u00e9mentaire Voltaire, Dijon","commune":"Dijon"}},{"type":"Feature","geometry":{"type":"Point","coordinates":[5.049339019460127,47.35022071229949]},"properties":{"nature":"Ecole maternelle","codcomm":"210231","nom":"Ecole maternelle Ch\u00e2teau de Pouilly","privepubli":"public","quartier":"Varennes - Toison d'Or - Joffre","nom_complet":"Ecole maternelle Ch\u00e2teau de Pouilly, Dijon","commune":"Dijon"}},{"type":"Feature","geometry":{"type":"Point","coordinates":[5.043290551999179,47.33649025267713]},"properties":{"nature":"Coll\u00e8ge","codcomm":"210231","nom":"Coll\u00e8ge Gaston Roupnel","privepubli":"public","quartier":"Maladi\u00e8re - Drapeau - Clemenceau","nom_complet":"Coll\u00e8ge Gaston Roupnel, Dijon","commune":"Dijon"}},{"type":"Feature","geometry":{"type":"Point","coordinates":[5.1082617879533245,47.31588148749797]},"properties":{"nature":"Groupe scolaire","codcomm":"210515","nom":"Groupe scolaire les Huches Fran\u00e7ois Mitterrand","privepubli":"public","quartier":null,"nom_complet":"Groupe scolaire les Huches Fran\u00e7ois Mitterrand, Quetigny","commune":"Quetigny"}},{"type":"Feature","geometry":{"type":"Point","coordinates":[5.030138332566696,47.34656794610752]},"properties":{"nature":"Groupe scolaire","codcomm":"210278","nom":"Groupe scolaire des Porte feuilles","privepubli":"public","quartier":null,"nom_complet":"Groupe scolaire des Porte feuilles, Fontaine-l\u00e8s-Dijon","commune":"Fontaine-l\u00e8s-Dijon"}},{"type":"Feature","geometry":{"type":"Point","coordinates":[5.016324923090269,47.29525498846484]},"properties":{"nature":"Groupe scolaire","codcomm":"210166","nom":"Groupe scolaire Jules Ferry","privepubli":"public","quartier":null,"nom_complet":"Groupe scolaire Jules Ferry, Chen\u00f4ve","commune":"Chen\u00f4ve"}},{"type":"Feature","geometry":{"type":"Point","coordinates":[5.114800095532221,47.24092851177157]},"properties":{"nature":"Groupe scolaire","codcomm":"210106","nom":"Groupe scolaire","privepubli":"public","quartier":null,"nom_complet":"Groupe scolaire, Breteni\u00e8re","commune":"Breteni\u00e8re"}},{"type":"Feature","geometry":{"type":"Point","coordinates":[5.130449202912757,47.2980284595815]},"properties":{"nature":"Groupe scolaire","codcomm":"210171","nom":"Groupe scolaire du Buisson Rond","privepubli":"public","quartier":null,"nom_complet":"Groupe scolaire du Buisson Rond, Chevigny-Saint-Sauveur","commune":"Chevigny-Saint-Sauveur"}},{"type":"Feature","geometry":{"type":"Point","coordinates":[4.996005335748231,47.365987417001634]},"properties":{"nature":"Groupe scolaire","codcomm":"210315","nom":"Groupe scolaire","privepubli":"public","quartier":null,"nom_complet":"Groupe scolaire, Hauteville-l\u00e8s-Dijon","commune":"Hauteville-l\u00e8s-Dijon"}},{"type":"Feature","geometry":{"type":"Point","coordinates":[5.059914666654688,47.281251423267825]},"properties":{"nature":"Groupe scolaire","codcomm":"210355","nom":"Groupe Scolaire Maurice Mazu\u00e9","privepubli":"public","quartier":null,"nom_complet":"Groupe Scolaire Maurice Mazu\u00e9, Longvic","commune":"Longvic"}},{"type":"Feature","geometry":{"type":"Point","coordinates":[5.0866124265892125,47.33105760787487]},"properties":{"nature":"Groupe scolaire","codcomm":"210540","nom":"Groupe scolaire du Paquier d'Aupr\u00e9","privepubli":"public","quartier":null,"nom_complet":"Groupe scolaire du Paquier d'Aupr\u00e9, Saint-Apollinaire","commune":"Saint-Apollinaire"}},{"type":"Feature","geometry":{"type":"Point","coordinates":[4.999538859289497,47.35197502807609]},"properties":{"nature":"Ecole maternelle","codcomm":"210223","nom":"Ecole \u00e9l\u00e9mentaire Fran\u00e7ois Monot","privepubli":"public","quartier":null,"nom_complet":"Ecole \u00e9l\u00e9mentaire Fran\u00e7ois Monot, Daix","commune":"Daix"}},{"type":"Feature","geometry":{"type":"Point","coordinates":[5.073678266511457,47.26223037323189]},"properties":{"nature":"Ecole \u00e9l\u00e9mentaire","codcomm":"210473","nom":"Ecole \u00e9l\u00e9mentaire","privepubli":"public","quartier":null,"nom_complet":"Ecole \u00e9l\u00e9mentaire, Ouges","commune":"Ouges"}},{"type":"Feature","geometry":{"type":"Point","coordinates":[5.0049005638472,47.33547679624577]},"properties":{"nature":"Ecole \u00e9l\u00e9mentaire","codcomm":"210617","nom":"Ecole Marie Curie","privepubli":"public","quartier":null,"nom_complet":"Ecole Marie Curie, Talant","commune":"Talant"}},{"type":"Feature","geometry":{"type":"Point","coordinates":[5.003733873898387,47.334995388252466]},"properties":{"nature":"Ecole \u00e9l\u00e9mentaire","codcomm":"210617","nom":"Ecole Jean Mac\u00e9","privepubli":"public","quartier":null,"nom_complet":"Ecole Jean Mac\u00e9, Talant","commune":"Talant"}},{"type":"Feature","geometry":{"type":"Point","coordinates":[5.005600910728118,47.3111751463444]},"properties":{"nature":"Ecole maternelle","codcomm":"210231","nom":"Ecole maternelle Gustave Eiffel","privepubli":"public","quartier":"Bourroches - Port du Canal - Valendons - Montagne Sainte-Anne","nom_complet":"Ecole maternelle Gustave Eiffel, Dijon","commune":"Dijon"}},{"type":"Feature","geometry":{"type":"Point","coordinates":[5.071092619560772,47.313541606993795]},"properties":{"nature":"Universit\u00e9","codcomm":"210231","nom":"R\u00e9sidence \u00e9tudiants MIC","privepubli":null,"quartier":"Universit\u00e9","nom_complet":"R\u00e9sidence \u00e9tudiants MIC, Dijon","commune":"Dijon"}},{"type":"Feature","geometry":{"type":"Point","coordinates":[5.0343915183875705,47.320821956726604]},"properties":{"nature":"Ecole \u00e9l\u00e9mentaire","codcomm":"210231","nom":"Ecole \u00e9l\u00e9mentaire priv\u00e9e Sainte Ursule","privepubli":"priv\u00e9","quartier":"Centre-Ville","nom_complet":"Ecole \u00e9l\u00e9mentaire priv\u00e9e Sainte Ursule, Dijon","commune":"Dijon"}},{"type":"Feature","geometry":{"type":"Point","coordinates":[5.014739413061055,47.31297761012493]},"properties":{"nature":"Ecole maternelle","codcomm":"210231","nom":"Ecole maternelle Larrey","privepubli":"public","quartier":"Bourroches - Port du Canal - Valendons - Montagne Sainte-Anne","nom_complet":"Ecole maternelle Larrey, Dijon","commune":"Dijon"}},{"type":"Feature","geometry":{"type":"Point","coordinates":[5.032640799190722,47.291773160693324]},"properties":{"nature":"CFA","codcomm":"210355","nom":"CFA de la Noue","privepubli":null,"quartier":null,"nom_complet":"CFA de la Noue, Longvic","commune":"Longvic"}},{"type":"Feature","geometry":{"type":"Point","coordinates":[5.180782260768589,47.304941126941955]},"properties":{"nature":"Ecole \u00e9l\u00e9mentaire","codcomm":"210105","nom":"Ecole \u00e9l\u00e9mentaire","privepubli":"public","quartier":null,"nom_complet":"Ecole \u00e9l\u00e9mentaire, Bressey-sur-Tille","commune":"Bressey-sur-Tille"}},{"type":"Feature","geometry":{"type":"Point","coordinates":[5.025218501505744,47.330014976552135]},"properties":{"nature":"Ecole maternelle","codcomm":"210231","nom":"\u00c9cole maternelle priv\u00e9e Saint Fran\u00e7ois de Sales","privepubli":"priv\u00e9","quartier":"Montchapet","nom_complet":"\u00c9cole maternelle priv\u00e9e Saint Fran\u00e7ois de Sales, Dijon","commune":"Dijon"}},{"type":"Feature","geometry":{"type":"Point","coordinates":[5.04330112650609,47.3018933333982]},"properties":{"nature":"Ecole maternelle","codcomm":"210231","nom":"Ecole maternelle Colombi\u00e8re","privepubli":"public","quartier":"Chevreul - Parc","nom_complet":"Ecole maternelle Colombi\u00e8re, Dijon","commune":"Dijon"}},{"type":"Feature","geometry":{"type":"Point","coordinates":[5.069977431297848,47.31511994473948]},"properties":{"nature":"Universit\u00e9","codcomm":"210231","nom":"M\u00e9decine pr\u00e9ventive universitaire et de promotion de la sant\u00e9 (SMPUPS)","privepubli":null,"quartier":"Universit\u00e9","nom_complet":"M\u00e9decine pr\u00e9ventive universitaire et de promotion de la sant\u00e9 (SMPUPS), Dijon","commune":"Dijon"}}]}